"station_code","CityEN","ProvinceEN","designation","keyregion","keyregion2018","Fenwei","YRD","PRD","Lon","Lat","station_name","CityZH","ProvinceZH"
"1001A","Beijing","Beijing","26+2","Jingjinji","2+26",FALSE,FALSE,FALSE,116.366,39.8673,"万寿西宫","北京","北京"
"1002A","Beijing","Beijing","26+2","Jingjinji","2+26",FALSE,FALSE,FALSE,116.17,40.2865,"定陵","北京","北京"
"1003A","Beijing","Beijing","26+2","Jingjinji","2+26",FALSE,FALSE,FALSE,116.434,39.9522,"东四","北京","北京"
"1004A","Beijing","Beijing","26+2","Jingjinji","2+26",FALSE,FALSE,FALSE,116.434,39.8745,"天坛","北京","北京"
"1005A","Beijing","Beijing","26+2","Jingjinji","2+26",FALSE,FALSE,FALSE,116.473,39.9716,"农展馆","北京","北京"
"1006A","Beijing","Beijing","26+2","Jingjinji","2+26",FALSE,FALSE,FALSE,116.361,39.9425,"官园","北京","北京"
"1007A","Beijing","Beijing","26+2","Jingjinji","2+26",FALSE,FALSE,FALSE,116.315,39.9934,"海淀区万柳","北京","北京"
"1008A","Beijing","Beijing","26+2","Jingjinji","2+26",FALSE,FALSE,FALSE,116.72,40.1438,"顺义新城","北京","北京"
"1009A","Beijing","Beijing","26+2","Jingjinji","2+26",FALSE,FALSE,FALSE,116.644,40.3937,"怀柔镇","北京","北京"
"1010A","Beijing","Beijing","26+2","Jingjinji","2+26",FALSE,FALSE,FALSE,116.23,40.1952,"昌平镇","北京","北京"
"1011A","Beijing","Beijing","26+2","Jingjinji","2+26",FALSE,FALSE,FALSE,116.407,40.0031,"奥体中心","北京","北京"
"1012A","Beijing","Beijing","26+2","Jingjinji","2+26",FALSE,FALSE,FALSE,116.225,39.9279,"古城","北京","北京"
"1013A","Tianjin","Tianjin","26+2","Jingjinji","2+26",FALSE,FALSE,FALSE,117.151,39.097,"市监测中心","天津","天津"
"1014A","Tianjin","Tianjin","26+2","Jingjinji","2+26",FALSE,FALSE,FALSE,117.193,39.173,"南口路","天津","天津"
"1015A","Tianjin","Tianjin","26+2","Jingjinji","2+26",FALSE,FALSE,FALSE,117.145,39.1654,"勤俭路","天津","天津"
"1016A","Tianjin","Tianjin","26+2","Jingjinji","2+26",FALSE,FALSE,FALSE,117.184,39.1205,"南京路","天津","天津"
"1017A","Tianjin","Tianjin","26+2","Jingjinji","2+26",FALSE,FALSE,FALSE,117.237,39.1082,"大直沽八号路","天津","天津"
"1018A","Tianjin","Tianjin","26+2","Jingjinji","2+26",FALSE,FALSE,FALSE,117.202,39.0927,"前进路","天津","天津"
"1019A","Tianjin","Tianjin","26+2","Jingjinji","2+26",FALSE,FALSE,FALSE,117.1837,39.2133,"北辰科技园区","天津","天津"
"1020A","Tianjin","Tianjin","26+2","Jingjinji","2+26",FALSE,FALSE,FALSE,117.269,39.1337,"天山路","天津","天津"
"1021A","Tianjin","Tianjin","26+2","Jingjinji","2+26",FALSE,FALSE,FALSE,117.307,39.0877,"跃进路","天津","天津"
"1023A","Tianjin","Tianjin","26+2","Jingjinji","2+26",FALSE,FALSE,FALSE,117.707,39.0343,"第四大街","天津","天津"
"1024A","Tianjin","Tianjin","26+2","Jingjinji","2+26",FALSE,FALSE,FALSE,117.457,38.8394,"永明路","天津","天津"
"1025A","Tianjin","Tianjin","26+2","Jingjinji","2+26",FALSE,FALSE,FALSE,117.401,39.124,"航天路","天津","天津"
"1026A","Tianjin","Tianjin","26+2","Jingjinji","2+26",FALSE,FALSE,FALSE,117.764,39.1587,"汉北路","天津","天津"
"1027A","Tianjin","Tianjin","26+2","Jingjinji","2+26",FALSE,FALSE,FALSE,117.157,38.9194,"团泊洼","天津","天津"
"1028A",NA,NA,NA,NA,NA,FALSE,NA,NA,NA,NA,"化工学校","石家庄",NA
"1029A","Shijiazhuang","Hebei","26+2","Jingjinji","2+26",FALSE,FALSE,FALSE,114.4548,38.0513,"职工医院","石家庄","河北"
"1030A","Shijiazhuang","Hebei","26+2","Jingjinji","2+26",FALSE,FALSE,FALSE,114.6046,38.0398,"高新区","石家庄","河北"
"1031A","Shijiazhuang","Hebei","26+2","Jingjinji","2+26",FALSE,FALSE,FALSE,114.5019,38.1398,"西北水源","石家庄","河北"
"1032A","Shijiazhuang","Hebei","26+2","Jingjinji","2+26",FALSE,FALSE,FALSE,114.4586111,38.00583333,"西南高教","石家庄","河北"
"1033A","Shijiazhuang","Hebei","26+2","Jingjinji","2+26",FALSE,FALSE,FALSE,114.5330556,38.01777778,"世纪公园","石家庄","河北"
"1034A","Shijiazhuang","Hebei","26+2","Jingjinji","2+26",FALSE,FALSE,FALSE,114.5214,38.0524,"人民会堂","石家庄","河北"
"1035A","Shijiazhuang","Hebei","26+2","Jingjinji","2+26",FALSE,FALSE,FALSE,114.3541,37.9097,"封龙山","石家庄","河北"
"1036A","Tangshan","Hebei","26+2","Jingjinji","2+26",FALSE,FALSE,FALSE,118.1662,39.6308,"供销社","唐山","河北"
"1037A","Tangshan","Hebei","26+2","Jingjinji","2+26",FALSE,FALSE,FALSE,118.144,39.643,"雷达站","唐山","河北"
"1038A","Tangshan","Hebei","26+2","Jingjinji","2+26",FALSE,FALSE,FALSE,118.1853,39.6407,"物资局","唐山","河北"
"1039A","Tangshan","Hebei","26+2","Jingjinji","2+26",FALSE,FALSE,FALSE,118.2185,39.6679,"陶瓷公司","唐山","河北"
"1040A","Tangshan","Hebei","26+2","Jingjinji","2+26",FALSE,FALSE,FALSE,118.1838,39.65782,"十二中","唐山","河北"
"1041A","Tangshan","Hebei","26+2","Jingjinji","2+26",FALSE,FALSE,FALSE,118.19970000000001,39.6295,"小山","唐山","河北"
"1042A","Qinhuangdao","Hebei","neighbor1","Jingjinji",NA,FALSE,FALSE,FALSE,119.5259,39.8283,"北戴河环保局","秦皇岛","河北"
"1043A","Qinhuangdao","Hebei","neighbor1","Jingjinji",NA,FALSE,FALSE,FALSE,119.7624,40.0181,"第一关","秦皇岛","河北"
"1044A","Qinhuangdao","Hebei","neighbor1","Jingjinji",NA,FALSE,FALSE,FALSE,119.6023,39.9567,"监测站","秦皇岛","河北"
"1045A","Qinhuangdao","Hebei","neighbor1","Jingjinji",NA,FALSE,FALSE,FALSE,119.607,39.9358,"市政府","秦皇岛","河北"
"1046A","Qinhuangdao","Hebei","neighbor1","Jingjinji",NA,FALSE,FALSE,FALSE,119.5369,39.9419,"建设大厦","秦皇岛","河北"
"1047A","Handan","Hebei","26+2","Jingjinji","2+26",FALSE,FALSE,FALSE,114.5129,36.61763,"环保局","邯郸","河北"
"1048A","Handan","Hebei","26+2","Jingjinji","2+26",FALSE,FALSE,FALSE,114.5426,36.6164,"东污水处理厂","邯郸","河北"
"1049A","Handan","Hebei","26+2","Jingjinji","2+26",FALSE,FALSE,FALSE,114.5035,36.5776,"矿院","邯郸","河北"
"1050A","Handan","Hebei","26+2","Jingjinji","2+26",FALSE,FALSE,FALSE,114.4965,36.61981,"丛台公园","邯郸","河北"
"1051A","Baoding","Hebei","26+2","Jingjinji","2+26",FALSE,FALSE,FALSE,115.493,38.8632,"游泳馆","保定","河北"
"1052A","Baoding","Hebei","26+2","Jingjinji","2+26",FALSE,FALSE,FALSE,115.5223,38.8957,"华电二区","保定","河北"
"1053A","Baoding","Hebei","26+2","Jingjinji","2+26",FALSE,FALSE,FALSE,115.4713,38.9108,"接待中心","保定","河北"
"1054A","Baoding","Hebei","26+2","Jingjinji","2+26",FALSE,FALSE,FALSE,115.4612,38.8416,"地表水厂","保定","河北"
"1055A","Baoding","Hebei","26+2","Jingjinji","2+26",FALSE,FALSE,FALSE,115.442,38.8756,"胶片厂","保定","河北"
"1056A","Baoding","Hebei","26+2","Jingjinji","2+26",FALSE,FALSE,FALSE,115.5214,38.8707,"监测站","保定","河北"
"1057A","Zhangjiakou","Hebei","neighbor1","Jingjinji",NA,FALSE,FALSE,FALSE,114.8985,40.8367,"人民公园","张家口","河北"
"1058A","Zhangjiakou","Hebei","neighbor1","Jingjinji",NA,FALSE,FALSE,FALSE,114.892,40.79481,"探机厂","张家口","河北"
"1059A","Zhangjiakou","Hebei","neighbor1","Jingjinji",NA,FALSE,FALSE,FALSE,114.8814,40.8115,"五金库","张家口","河北"
"1060A","Zhangjiakou","Hebei","neighbor1","Jingjinji",NA,FALSE,FALSE,FALSE,114.9032,40.7688,"世纪豪园","张家口","河北"
"1061A","Zhangjiakou","Hebei","neighbor1","Jingjinji",NA,FALSE,FALSE,FALSE,114.904,40.8725,"北泵房","张家口","河北"
"1062A","Chengde","Hebei","neighbor1","Jingjinji",NA,FALSE,FALSE,FALSE,117.9664,40.9161,"铁路","承德","河北"
"1063A","Chengde","Hebei","neighbor1","Jingjinji",NA,FALSE,FALSE,FALSE,117.9525,40.9843,"中国银行","承德","河北"
"1064A","Chengde","Hebei","neighbor1","Jingjinji",NA,FALSE,FALSE,FALSE,117.963,40.9359,"开发区","承德","河北"
"1065A","Chengde","Hebei","neighbor1","Jingjinji",NA,FALSE,FALSE,FALSE,117.8184,40.9733,"文化中心","承德","河北"
"1066A","Chengde","Hebei","neighbor1","Jingjinji",NA,FALSE,FALSE,FALSE,117.9384,41.0112,"离宫","承德","河北"
"1067A","Langfang","Hebei","26+2","Jingjinji","2+26",FALSE,FALSE,FALSE,116.6838,39.5178,"药材公司","廊坊","河北"
"1068A","Langfang","Hebei","26+2","Jingjinji","2+26",FALSE,FALSE,FALSE,116.7729,39.5747,"开发区","廊坊","河北"
"1069A","Langfang","Hebei","26+2","Jingjinji","2+26",FALSE,FALSE,FALSE,116.715,39.5571,"环境监测监理中心","廊坊","河北"
"1070A","Langfang","Hebei","26+2","Jingjinji","2+26",FALSE,FALSE,FALSE,116.7464,39.5343,"北华航天学院","廊坊","河北"
"1071A","Cangzhou","Hebei","26+2","Jingjinji","2+26",FALSE,FALSE,FALSE,116.8854,38.2991,"沧县城建局","沧州","河北"
"1072A","Cangzhou","Hebei","26+2","Jingjinji","2+26",FALSE,FALSE,FALSE,116.8584,38.3254,"电视转播站","沧州","河北"
"1073A","Cangzhou","Hebei","26+2","Jingjinji","2+26",FALSE,FALSE,FALSE,116.8709,38.3228,"市环保局","沧州","河北"
"1074A","Hengshui","Hebei","26+2","Jingjinji","2+26",FALSE,FALSE,FALSE,115.6951,37.7575,"电机北厂","衡水","河北"
"1075A","Hengshui","Hebei","26+2","Jingjinji","2+26",FALSE,FALSE,FALSE,115.6426,37.7379,"市监测站","衡水","河北"
"1076A","Hengshui","Hebei","26+2","Jingjinji","2+26",FALSE,FALSE,FALSE,115.6906,37.739,"市环保局","衡水","河北"
"1077A","Xingtai","Hebei","26+2","Jingjinji","2+26",FALSE,FALSE,FALSE,114.4821,37.0967,"达活泉","邢台","河北"
"1078A","Xingtai","Hebei","26+2","Jingjinji","2+26",FALSE,FALSE,FALSE,114.5261,37.0533,"邢师高专","邢台","河北"
"1079A","Xingtai","Hebei","26+2","Jingjinji","2+26",FALSE,FALSE,FALSE,114.5331,37.0964,"路桥公司","邢台","河北"
"1080A","Xingtai","Hebei","26+2","Jingjinji","2+26",FALSE,FALSE,FALSE,114.4854,37.062,"市环保局","邢台","河北"
"1081A","Taiyuan","Shanxi","26+2","none","2+26",FALSE,FALSE,FALSE,112.522,37.8873,"尖草坪","太原","山西"
"1082A","Taiyuan","Shanxi","26+2","none","2+26",FALSE,FALSE,FALSE,112.573,37.9103,"涧河","太原","山西"
"1083A","Taiyuan","Shanxi","26+2","none","2+26",FALSE,FALSE,FALSE,112.434,38.0108,"上兰","太原","山西"
"1084A","Taiyuan","Shanxi","26+2","none","2+26",FALSE,FALSE,FALSE,112.469,37.7124,"晋源","太原","山西"
"1085A","Taiyuan","Shanxi","26+2","none","2+26",FALSE,FALSE,FALSE,112.5583,37.7394,"小店","太原","山西"
"1086A","Taiyuan","Shanxi","26+2","none","2+26",FALSE,FALSE,FALSE,112.5369,37.8692,"桃园","太原","山西"
"1087A","Taiyuan","Shanxi","26+2","none","2+26",FALSE,FALSE,FALSE,112.57,37.8195,"坞城","太原","山西"
"1088A","Taiyuan","Shanxi","26+2","none","2+26",FALSE,FALSE,FALSE,112.549,37.9854,"南寨","太原","山西"
"1089A","Taiyuan","Shanxi","26+2","none","2+26",FALSE,FALSE,FALSE,112.488,37.7805,"金胜","太原","山西"
"1090A","Hohhot","Nei Mongol","neighbor2","none",NA,FALSE,FALSE,FALSE,111.651,40.7579,"呼市一监","呼和浩特","内蒙古"
"1091A","Hohhot","Nei Mongol","neighbor2","none",NA,FALSE,FALSE,FALSE,111.658,40.8033,"小召","呼和浩特","内蒙古"
"1092A","Hohhot","Nei Mongol","neighbor2","none",NA,FALSE,FALSE,FALSE,111.659,40.8452,"兴松小区","呼和浩特","内蒙古"
"1093A","Hohhot","Nei Mongol","neighbor2","none",NA,FALSE,FALSE,FALSE,111.608,40.8144,"糖厂","呼和浩特","内蒙古"
"1094A","Hohhot","Nei Mongol","neighbor2","none",NA,FALSE,FALSE,FALSE,111.751,40.8369,"如意水处理厂","呼和浩特","内蒙古"
"1095A","Hohhot","Nei Mongol","neighbor2","none",NA,FALSE,FALSE,FALSE,111.7277,40.8062,"二十九中","呼和浩特","内蒙古"
"1096A","Hohhot","Nei Mongol","neighbor2","none",NA,FALSE,FALSE,FALSE,111.551,40.7866,"工大金川校区","呼和浩特","内蒙古"
"1097A","Hohhot","Nei Mongol","neighbor2","none",NA,FALSE,FALSE,FALSE,111.717,40.7612,"化肥厂生活区","呼和浩特","内蒙古"
"1098A","Shenyang","Liaoning","none","none",NA,FALSE,FALSE,FALSE,123.6836,41.9339,"森林路","沈阳","辽宁"
"1099A","Shenyang","Liaoning","none","none",NA,FALSE,FALSE,FALSE,123.535,41.756100000000004,"浑南东路","沈阳","辽宁"
"1100A","Shenyang","Liaoning","none","none",NA,FALSE,FALSE,FALSE,123.439,41.7089,"新秀街","沈阳","辽宁"
"1101A","Shenyang","Liaoning","none","none",NA,FALSE,FALSE,FALSE,123.284,41.7694,"沧海路","沈阳","辽宁"
"1102A","Shenyang","Liaoning","none","none",NA,FALSE,FALSE,FALSE,123.542,41.8336,"东陵路","沈阳","辽宁"
"1103A","Shenyang","Liaoning","none","none",NA,FALSE,FALSE,FALSE,123.428,41.8472,"陵东街","沈阳","辽宁"
"1104A","Shenyang","Liaoning","none","none",NA,FALSE,FALSE,FALSE,123.41,41.765,"文化路","沈阳","辽宁"
"1105A","Shenyang","Liaoning","none","none",NA,FALSE,FALSE,FALSE,123.478,41.7775,"小河沿","沈阳","辽宁"
"1106A","Shenyang","Liaoning","none","none",NA,FALSE,FALSE,FALSE,123.3997,41.7972,"太原街","沈阳","辽宁"
"1107A","Shenyang","Liaoning","none","none",NA,FALSE,FALSE,FALSE,123.3606,41.7806,"南十东路","沈阳","辽宁"
"1108A","Shenyang","Liaoning","none","none",NA,FALSE,FALSE,FALSE,123.3783,41.9228,"京沈街","沈阳","辽宁"
"1109A","Dalian","Liaoning","neighbor2","none",NA,FALSE,FALSE,FALSE,121.6119444,38.97388889,"甘井子","大连","辽宁"
"1110A","Dalian","Liaoning","neighbor2","none",NA,FALSE,FALSE,FALSE,121.565,38.95111111,"周水子","大连","辽宁"
"1111A","Dalian","Liaoning","neighbor2","none",NA,FALSE,FALSE,FALSE,121.5638889,38.885,"星海三站","大连","辽宁"
"1112A","Dalian","Liaoning","neighbor2","none",NA,FALSE,FALSE,FALSE,121.6330556,38.91194444,"青泥洼桥","大连","辽宁"
"1113A","Dalian","Liaoning","neighbor2","none",NA,FALSE,FALSE,FALSE,121.625,38.86388889,"傅家庄","大连","辽宁"
"1114A","Dalian","Liaoning","neighbor2","none",NA,FALSE,FALSE,FALSE,121.5180556,38.85611111,"七贤岭","大连","辽宁"
"1115A","Dalian","Liaoning","neighbor2","none",NA,FALSE,FALSE,FALSE,121.2588889,38.80805556,"旅顺","大连","辽宁"
"1116A","Dalian","Liaoning","neighbor2","none",NA,FALSE,FALSE,FALSE,121.7481,39.131100000000004,"金州","大连","辽宁"
"1117A","Dalian","Liaoning","neighbor2","none",NA,FALSE,FALSE,FALSE,121.7769,39.0511,"开发区","大连","辽宁"
"1118A","Dalian","Liaoning","neighbor2","none",NA,FALSE,FALSE,FALSE,121.9769,39.0631,"双D港","大连","辽宁"
"1119A","Changchun","Jilin","none","none",NA,FALSE,FALSE,FALSE,125.323,43.9167,"食品厂","长春","吉林"
"1120A","Changchun","Jilin","none","none",NA,FALSE,FALSE,FALSE,125.287,43.91,"客车厂","长春","吉林"
"1121A","Changchun","Jilin","none","none",NA,FALSE,FALSE,FALSE,125.2786,43.84,"邮电学院","长春","吉林"
"1122A","Changchun","Jilin","none","none",NA,FALSE,FALSE,FALSE,125.3649,43.8748,"劳动公园","长春","吉林"
"1123A","Changchun","Jilin","none","none",NA,FALSE,FALSE,FALSE,125.325,43.8694,"园林处","长春","吉林"
"1124A","Changchun","Jilin","none","none",NA,FALSE,FALSE,FALSE,125.454,43.7878,"净月潭","长春","吉林"
"1125A","Changchun","Jilin","none","none",NA,FALSE,FALSE,FALSE,125.633,43.55,"甩湾子","长春","吉林"
"1126A","Changchun","Jilin","none","none",NA,FALSE,FALSE,FALSE,125.417,43.8667,"经开区环卫处","长春","吉林"
"1127A","Changchun","Jilin","none","none",NA,FALSE,FALSE,FALSE,125.25,43.8167,"高新区管委会","长春","吉林"
"1128A","Changchun","Jilin","none","none",NA,FALSE,FALSE,FALSE,125.217,43.85,"岱山公园","长春","吉林"
"1129A","Harbin","Heilongjiang","none","none",NA,FALSE,FALSE,FALSE,126.542,45.755,"岭北","哈尔滨","黑龙江"
"1130A","Harbin","Heilongjiang","none","none",NA,FALSE,FALSE,FALSE,126.561,45.8167,"松北商大","哈尔滨","黑龙江"
"1131A","Harbin","Heilongjiang","none","none",NA,FALSE,FALSE,FALSE,126.979,45.5422,"阿城会宁","哈尔滨","黑龙江"
"1132A","Harbin","Heilongjiang","none","none",NA,FALSE,FALSE,FALSE,126.599,45.7222,"南岗学府路","哈尔滨","黑龙江"
"1133A","Harbin","Heilongjiang","none","none",NA,FALSE,FALSE,FALSE,126.689,45.7733,"太平宏伟公园","哈尔滨","黑龙江"
"1134A","Harbin","Heilongjiang","none","none",NA,FALSE,FALSE,FALSE,126.635,45.7667,"道外承德广场","哈尔滨","黑龙江"
"1135A","Harbin","Heilongjiang","none","none",NA,FALSE,FALSE,FALSE,126.685,45.7319,"香坊红旗大街","哈尔滨","黑龙江"
"1136A","Harbin","Heilongjiang","none","none",NA,FALSE,FALSE,FALSE,126.646,45.7258,"动力和平路","哈尔滨","黑龙江"
"1137A","Harbin","Heilongjiang","none","none",NA,FALSE,FALSE,FALSE,126.593,45.7478,"道里建国路","哈尔滨","黑龙江"
"1138A","Harbin","Heilongjiang","none","none",NA,FALSE,FALSE,FALSE,126.615,45.61,"平房东轻厂","哈尔滨","黑龙江"
"1139A","Harbin","Heilongjiang","none","none",NA,FALSE,FALSE,FALSE,126.6106,45.9819,"呼兰师专","哈尔滨","黑龙江"
"1140A","Harbin","Heilongjiang","none","none",NA,FALSE,FALSE,FALSE,126.6206,45.6842,"省农科院","哈尔滨","黑龙江"
"1142A","Shanghai","Shanghai","none","YRD","YRD",FALSE,TRUE,FALSE,121.478,31.2036,"十五厂","上海","上海"
"1143A","Shanghai","Shanghai","none","YRD","YRD",FALSE,TRUE,FALSE,121.467,31.3008,"虹口","上海","上海"
"1144A","Shanghai","Shanghai","none","YRD","YRD",FALSE,TRUE,FALSE,121.412,31.1654,"徐汇上师大","上海","上海"
"1145A","Shanghai","Shanghai","none","YRD","YRD",FALSE,TRUE,FALSE,121.536,31.2659,"杨浦四漂","上海","上海"
"1146A","Shanghai","Shanghai","none","YRD","YRD",FALSE,TRUE,FALSE,120.978,31.0935,"青浦淀山湖","上海","上海"
"1147A","Shanghai","Shanghai","none","YRD","YRD",FALSE,TRUE,FALSE,121.425,31.2261,"静安监测站","上海","上海"
"1148A","Shanghai","Shanghai","none","YRD","YRD",FALSE,TRUE,FALSE,121.703,31.1907,"浦东川沙","上海","上海"
"1149A","Shanghai","Shanghai","none","YRD","YRD",FALSE,TRUE,FALSE,121.533,31.2284,"浦东新区监测站","上海","上海"
"1150A","Shanghai","Shanghai","none","YRD","YRD",FALSE,TRUE,FALSE,121.577,31.2071,"浦东张江","上海","上海"
"1151A","Nanjing","Jiangsu","neighbor2","YRD","YRD",FALSE,TRUE,FALSE,118.803,32.1083,"迈皋桥","南京","江苏"
"1152A","Nanjing","Jiangsu","neighbor2","YRD","YRD",FALSE,TRUE,FALSE,118.749,32.0572,"草场门","南京","江苏"
"1153A","Nanjing","Jiangsu","neighbor2","YRD","YRD",FALSE,TRUE,FALSE,118.778,32.0723,"山西路","南京","江苏"
"1154A","Nanjing","Jiangsu","neighbor2","YRD","YRD",FALSE,TRUE,FALSE,118.777,32.0144,"中华门","南京","江苏"
"1155A","Nanjing","Jiangsu","neighbor2","YRD","YRD",FALSE,TRUE,FALSE,118.803,32.0314,"瑞金路","南京","江苏"
"1156A","Nanjing","Jiangsu","neighbor2","YRD","YRD",FALSE,TRUE,FALSE,118.795,32.0775,"玄武湖","南京","江苏"
"1157A","Nanjing","Jiangsu","neighbor2","YRD","YRD",FALSE,TRUE,FALSE,118.626,32.0878,"浦口","南京","江苏"
"1158A","Nanjing","Jiangsu","neighbor2","YRD","YRD",FALSE,TRUE,FALSE,118.737,32.0092,"奥体中心","南京","江苏"
"1159A","Nanjing","Jiangsu","neighbor2","YRD","YRD",FALSE,TRUE,FALSE,118.907,32.105,"仙林大学城","南京","江苏"
"1160A","Suzhou","Jiangsu","none","YRD","YRD",FALSE,TRUE,FALSE,120.561,31.2472,"上方山","苏州","江苏"
"1161A","Suzhou","Jiangsu","none","YRD","YRD",FALSE,TRUE,FALSE,120.628,31.2864,"南门","苏州","江苏"
"1162A","Suzhou","Jiangsu","none","YRD","YRD",FALSE,TRUE,FALSE,120.591,31.3019,"彩香","苏州","江苏"
"1163A","Suzhou","Jiangsu","none","YRD","YRD",FALSE,TRUE,FALSE,120.596,31.3264,"轧钢厂","苏州","江苏"
"1164A","Suzhou","Jiangsu","none","YRD","YRD",FALSE,TRUE,FALSE,120.613,31.2703,"吴中区","苏州","江苏"
"1165A","Suzhou","Jiangsu","none","YRD","YRD",FALSE,TRUE,FALSE,120.543,31.2994,"苏州新区","苏州","江苏"
"1166A","Suzhou","Jiangsu","none","YRD","YRD",FALSE,TRUE,FALSE,120.669,31.3097,"苏州工业园区","苏州","江苏"
"1167A","Suzhou","Jiangsu","none","YRD","YRD",FALSE,TRUE,FALSE,120.641,31.3708,"相城区","苏州","江苏"
"1168A","Nantong","Jiangsu","none","YRD","YRD",FALSE,TRUE,FALSE,120.913,31.96,"南郊","南通","江苏"
"1169A","Nantong","Jiangsu","none","YRD","YRD",FALSE,TRUE,FALSE,120.86,32.0005,"虹桥","南通","江苏"
"1170A","Nantong","Jiangsu","none","YRD","YRD",FALSE,TRUE,FALSE,120.87,32.02,"城中","南通","江苏"
"1171A","Nantong","Jiangsu","none","YRD","YRD",FALSE,TRUE,FALSE,120.94,31.93,"星湖花园","南通","江苏"
"1172A","Nantong","Jiangsu","none","YRD","YRD",FALSE,TRUE,FALSE,120.81,32.0417,"紫琅学院","南通","江苏"
"1173A","Lianyungang","Jiangsu","neighbor2","none",NA,FALSE,FALSE,FALSE,119.176,34.5885,"市环境监测站","连云港","江苏"
"1174A","Lianyungang","Jiangsu","neighbor2","none",NA,FALSE,FALSE,FALSE,119.141,34.5896,"洪门派出所","连云港","江苏"
"1175A","Lianyungang","Jiangsu","neighbor2","none",NA,FALSE,FALSE,FALSE,119.368,34.7507,"墟沟核电专家村","连云港","江苏"
"1176A","Lianyungang","Jiangsu","neighbor2","none",NA,FALSE,FALSE,FALSE,119.348,34.6984,"开发区恒瑞医药公司","连云港","江苏"
"1177A","Xuzhou","Jiangsu","neighbor1","none",NA,FALSE,FALSE,FALSE,117.167,34.2761,"黄河新村","徐州","江苏"
"1178A","Xuzhou","Jiangsu","neighbor1","none",NA,FALSE,FALSE,FALSE,117.192,34.2417,"淮塔","徐州","江苏"
"1179A","Xuzhou","Jiangsu","neighbor1","none",NA,FALSE,FALSE,FALSE,117.192,34.3083,"铜山兽医院","徐州","江苏"
"1180A","Xuzhou","Jiangsu","neighbor1","none",NA,FALSE,FALSE,FALSE,117.256,34.2153,"新城区","徐州","江苏"
"1181A","Xuzhou","Jiangsu","neighbor1","none",NA,FALSE,FALSE,FALSE,117.244,34.2911,"桃园路","徐州","江苏"
"1182A","Xuzhou","Jiangsu","neighbor1","none",NA,FALSE,FALSE,FALSE,117.2933,34.2778,"农科院","徐州","江苏"
"1183A","Xuzhou","Jiangsu","neighbor1","none",NA,FALSE,FALSE,FALSE,117.166,34.1806,"铜山区环保局","徐州","江苏"
"1184A","Yangzhou","Jiangsu","neighbor2","YRD","YRD",FALSE,TRUE,FALSE,119.46,32.3878,"城东财政所","扬州","江苏"
"1185A","Yangzhou","Jiangsu","neighbor2","YRD","YRD",FALSE,TRUE,FALSE,119.404,32.41,"市监测站","扬州","江苏"
"1186A","Yangzhou","Jiangsu","neighbor2","YRD","YRD",FALSE,TRUE,FALSE,119.389,32.3761,"邗江监测站","扬州","江苏"
"1187A","Yangzhou","Jiangsu","neighbor2","YRD","YRD",FALSE,TRUE,FALSE,119.439,32.4033,"第四医院","扬州","江苏"
"1188A","Wuxi","Jiangsu","neighbor2","YRD","YRD",FALSE,TRUE,FALSE,120.269,31.4867,"雪浪","无锡","江苏"
"1189A","Wuxi","Jiangsu","neighbor2","YRD","YRD",FALSE,TRUE,FALSE,120.275,31.6219,"黄巷","无锡","江苏"
"1190A","Wuxi","Jiangsu","neighbor2","YRD","YRD",FALSE,TRUE,FALSE,120.294,31.56,"曹张","无锡","江苏"
"1191A","Wuxi","Jiangsu","neighbor2","YRD","YRD",FALSE,TRUE,FALSE,120.242,31.5031,"漆塘","无锡","江苏"
"1192A","Wuxi","Jiangsu","neighbor2","YRD","YRD",FALSE,TRUE,FALSE,120.354,31.5848,"东亭","无锡","江苏"
"1193A","Wuxi","Jiangsu","neighbor2","YRD","YRD",FALSE,TRUE,FALSE,120.354,31.5475,"旺庄","无锡","江苏"
"1194A","Wuxi","Jiangsu","neighbor2","YRD","YRD",FALSE,TRUE,FALSE,120.245,31.5631,"荣巷","无锡","江苏"
"1195A","Wuxi","Jiangsu","neighbor2","YRD","YRD",FALSE,TRUE,FALSE,120.288,31.6842,"堰桥","无锡","江苏"
"1196A","Changzhou","Jiangsu","neighbor2","YRD","YRD",FALSE,TRUE,FALSE,119.996,31.7586,"市监测站","常州","江苏"
"1197A","Changzhou","Jiangsu","neighbor2","YRD","YRD",FALSE,TRUE,FALSE,119.933,31.7786,"城建学校","常州","江苏"
"1198A","Changzhou","Jiangsu","neighbor2","YRD","YRD",FALSE,TRUE,FALSE,119.962,31.8089,"常工院","常州","江苏"
"1199A","Changzhou","Jiangsu","neighbor2","YRD","YRD",FALSE,TRUE,FALSE,120.0393,31.7638,"潞城","常州","江苏"
"1200A","Changzhou","Jiangsu","neighbor2","YRD","YRD",FALSE,TRUE,FALSE,119.935,31.7039,"武进监测站","常州","江苏"
"1201A","Changzhou","Jiangsu","neighbor2","YRD","YRD",FALSE,TRUE,FALSE,119.905,31.9108,"安家","常州","江苏"
"1202A",NA,NA,NA,NA,NA,FALSE,NA,NA,NA,NA,"环境监测站","镇江",NA
"1203A","Zhenjiang","Jiangsu","neighbor2","YRD","YRD",FALSE,TRUE,FALSE,119.68,32.1883,"新区办事处","镇江","江苏"
"1204A","Zhenjiang","Jiangsu","neighbor2","YRD","YRD",FALSE,TRUE,FALSE,119.491,32.215,"职教中心","镇江","江苏"
"1205A","Zhenjiang","Jiangsu","neighbor2","YRD","YRD",FALSE,TRUE,FALSE,119.43,32.1319,"丹徒区监测站","镇江","江苏"
"1206A","Taizhou","Jiangsu","neighbor2","YRD","YRD",FALSE,TRUE,FALSE,119.9,32.4867,"公园路","泰州","江苏"
"1207A","Taizhou","Jiangsu","neighbor2","YRD","YRD",FALSE,TRUE,FALSE,119.9219,32.4611,"莲花","泰州","江苏"
"1208A","Taizhou","Jiangsu","neighbor2","YRD","YRD",FALSE,TRUE,FALSE,119.882,32.303,"高港区政府","泰州","江苏"
"1209A","Taizhou","Jiangsu","neighbor2","YRD","YRD",FALSE,TRUE,FALSE,119.888,32.4639,"留学生创业园","泰州","江苏"
"1210A","Huai'an","Jiangsu","neighbor2","none",NA,FALSE,FALSE,FALSE,119.036,33.5981,"钵池山","淮安","江苏"
"1211A","Huai'an","Jiangsu","neighbor2","none",NA,FALSE,FALSE,FALSE,119.007,33.575,"北京南路","淮安","江苏"
"1212A","Huai'an","Jiangsu","neighbor2","none",NA,FALSE,FALSE,FALSE,118.989,33.6067,"市监测站","淮安","江苏"
"1213A","Huai'an","Jiangsu","neighbor2","none",NA,FALSE,FALSE,FALSE,119.135,33.5039,"楚州区监测站","淮安","江苏"
"1214A","Huai'an","Jiangsu","neighbor2","none",NA,FALSE,FALSE,FALSE,119.01220000000001,33.627,"淮阴区监测站","淮安","江苏"
"1215A","Yancheng","Jiangsu","neighbor2","YRD","YRD",FALSE,TRUE,FALSE,120.118,33.4022,"盐城电厂","盐城","江苏"
"1216A","Yancheng","Jiangsu","neighbor2","YRD","YRD",FALSE,TRUE,FALSE,120.156,33.3942,"市监测站","盐城","江苏"
"1217A","Yancheng","Jiangsu","neighbor2","YRD","YRD",FALSE,TRUE,FALSE,120.129,33.3719,"文峰中学","盐城","江苏"
"1218A","Yancheng","Jiangsu","neighbor2","YRD","YRD",FALSE,TRUE,FALSE,120.225,33.3947,"开发区管委会","盐城","江苏"
"1219A","Suqian","Jiangsu","neighbor2","none",NA,FALSE,FALSE,FALSE,118.2658,33.96,"市监测站","宿迁","江苏"
"1220A","Suqian","Jiangsu","neighbor2","none",NA,FALSE,FALSE,FALSE,118.293,33.9528,"宿迁学院","宿迁","江苏"
"1221A","Suqian","Jiangsu","neighbor2","none",NA,FALSE,FALSE,FALSE,118.2442,33.9592,"宿迁中学","宿迁","江苏"
"1222A","Suqian","Jiangsu","neighbor2","none",NA,FALSE,FALSE,FALSE,118.3214,33.9506,"宿豫区环保局","宿迁","江苏"
"1223A","Hangzhou","Zhejiang","none","YRD","YRD",FALSE,TRUE,FALSE,120.211,30.21,"滨江","杭州","浙江"
"1224A","Hangzhou","Zhejiang","none","YRD","YRD",FALSE,TRUE,FALSE,120.063,30.2747,"西溪","杭州","浙江"
"1225A","Hangzhou","Zhejiang","none","YRD","YRD",FALSE,TRUE,FALSE,119.026,29.635,"千岛湖","杭州","浙江"
"1226A","Hangzhou","Zhejiang","none","YRD","YRD",FALSE,TRUE,FALSE,120.348,30.3058,"下沙","杭州","浙江"
"1227A","Hangzhou","Zhejiang","none","YRD","YRD",FALSE,TRUE,FALSE,120.127,30.2456,"卧龙桥","杭州","浙江"
"1228A","Hangzhou","Zhejiang","none","YRD","YRD",FALSE,TRUE,FALSE,120.19,30.2692,"浙江农大","杭州","浙江"
"1229A","Hangzhou","Zhejiang","none","YRD","YRD",FALSE,TRUE,FALSE,120.157,30.2897,"朝晖五区","杭州","浙江"
"1230A","Hangzhou","Zhejiang","none","YRD","YRD",FALSE,TRUE,FALSE,120.12,30.3119,"和睦小学","杭州","浙江"
"1231A","Hangzhou","Zhejiang","none","YRD","YRD",FALSE,TRUE,FALSE,120.301,30.4183,"临平镇","杭州","浙江"
"1232A","Hangzhou","Zhejiang","none","YRD","YRD",FALSE,TRUE,FALSE,120.27,30.1819,"城厢镇","杭州","浙江"
"1233A","Hangzhou","Zhejiang","none","YRD","YRD",FALSE,TRUE,FALSE,120.088,30.1808,"云栖","杭州","浙江"
"1234A","Ningbo","Zhejiang","none","YRD","YRD",FALSE,TRUE,FALSE,121.836,29.9108,"区环保大楼","宁波","浙江"
"1235A","Ningbo","Zhejiang","none","YRD","YRD",FALSE,TRUE,FALSE,121.56,29.8208,"万里学院","宁波","浙江"
"1236A","Ningbo","Zhejiang","none","YRD","YRD",FALSE,TRUE,FALSE,121.713,29.9572,"龙赛医院","宁波","浙江"
"1237A","Ningbo","Zhejiang","none","YRD","YRD",FALSE,TRUE,FALSE,121.554,29.8906,"三江中学","宁波","浙江"
"1238A",NA,NA,NA,NA,NA,FALSE,NA,NA,NA,NA,"市政管理站","宁波",NA
"1239A","Ningbo","Zhejiang","none","YRD","YRD",FALSE,TRUE,FALSE,121.633,29.7736,"钱湖水厂","宁波","浙江"
"1240A","Ningbo","Zhejiang","none","YRD","YRD",FALSE,TRUE,FALSE,121.586,29.8633,"太古小学","宁波","浙江"
"1241A","Ningbo","Zhejiang","none","YRD","YRD",FALSE,TRUE,FALSE,121.524,29.8506,"市环境监测中心","宁波","浙江"
"1242A","Wenzhou","Zhejiang","none","none",NA,FALSE,FALSE,FALSE,120.634,28.0089,"瓯海","温州","浙江"
"1243A","Wenzhou","Zhejiang","none","none",NA,FALSE,FALSE,FALSE,120.677,27.9939,"南浦","温州","浙江"
"1244A","Wenzhou","Zhejiang","none","none",NA,FALSE,FALSE,FALSE,120.76,27.9747,"龙湾","温州","浙江"
"1245A","Wenzhou","Zhejiang","none","none",NA,FALSE,FALSE,FALSE,120.671,28.0167,"市站","温州","浙江"
"1246A","Shaoxing","Zhejiang","none","YRD","YRD",FALSE,TRUE,FALSE,120.598,30.0911,"袍江站","绍兴","浙江"
"1247A","Shaoxing","Zhejiang","none","YRD","YRD",FALSE,TRUE,FALSE,120.605,29.9919,"城东开发委","绍兴","浙江"
"1248A","Shaoxing","Zhejiang","none","YRD","YRD",FALSE,TRUE,FALSE,120.576,30.007,"市环保站","绍兴","浙江"
"1249A","Huzhou","Zhejiang","none","YRD","YRD",FALSE,TRUE,FALSE,120.1,30.8867,"城北水厂","湖州","浙江"
"1250A","Huzhou","Zhejiang","none","YRD","YRD",FALSE,TRUE,FALSE,120.07,30.8244,"城西水厂","湖州","浙江"
"1251A","Huzhou","Zhejiang","none","YRD","YRD",FALSE,TRUE,FALSE,120.093,30.8617,"吉山新村","湖州","浙江"
"1252A","Jiaxing","Zhejiang","none","YRD","YRD",FALSE,TRUE,FALSE,120.744,30.7946,"清河小学","嘉兴","浙江"
"1253A","Jiaxing","Zhejiang","none","YRD","YRD",FALSE,TRUE,FALSE,120.726,30.7478,"嘉兴学院","嘉兴","浙江"
"1254A",NA,NA,NA,NA,NA,FALSE,NA,NA,NA,NA,"监测站","嘉兴",NA
"1255A","Taizhou","Zhejiang","none","YRD","YRD",FALSE,TRUE,FALSE,121.273,28.6459,"黄岩环保大楼","台州","浙江"
"1256A","Taizhou","Zhejiang","none","YRD","YRD",FALSE,TRUE,FALSE,121.419,28.6542,"台州环保大楼","台州","浙江"
"1257A","Taizhou","Zhejiang","none","YRD","YRD",FALSE,TRUE,FALSE,121.377,28.5773,"路桥田洋王","台州","浙江"
"1258A","Zhoushan","Zhejiang","none","YRD","YRD",FALSE,TRUE,FALSE,122.122,30.0203,"定海檀枫","舟山","浙江"
"1259A","Zhoushan","Zhejiang","none","YRD","YRD",FALSE,TRUE,FALSE,122.3094,29.9558,"普陀东港","舟山","浙江"
"1260A","Zhoushan","Zhejiang","none","YRD","YRD",FALSE,TRUE,FALSE,122.19,29.9944,"临城新区","舟山","浙江"
"1261A","Jinhua","Zhejiang","none","YRD","YRD",FALSE,TRUE,FALSE,119.649,29.1131,"四中","金华","浙江"
"1262A","Jinhua","Zhejiang","none","YRD","YRD",FALSE,TRUE,FALSE,119.647,29.077,"十五中","金华","浙江"
"1263A","Jinhua","Zhejiang","none","YRD","YRD",FALSE,TRUE,FALSE,119.686,29.1029,"监测站","金华","浙江"
"1264A","Quzhou","Zhejiang","none","none",NA,FALSE,FALSE,FALSE,118.871,28.9404,"环保大楼","衢州","浙江"
"1265A","Quzhou","Zhejiang","none","none",NA,FALSE,FALSE,FALSE,118.871,28.9664,"实验学校","衢州","浙江"
"1266A","Quzhou","Zhejiang","none","none",NA,FALSE,FALSE,FALSE,118.855,28.9745,"衢州学院","衢州","浙江"
"1267A","Lishui","Zhejiang","none","none",NA,FALSE,FALSE,FALSE,119.914,28.4514,"监测站大楼","丽水","浙江"
"1268A","Lishui","Zhejiang","none","none",NA,FALSE,FALSE,FALSE,119.93,28.4586,"莲都小学","丽水","浙江"
"1269A","Lishui","Zhejiang","none","none",NA,FALSE,FALSE,FALSE,119.879,28.4231,"余庄前","丽水","浙江"
"1270A","Hefei","Anhui","neighbor2","YRD","YRD",FALSE,TRUE,FALSE,117.196,31.7848,"明珠广场","合肥","安徽"
"1271A","Hefei","Anhui","neighbor2","YRD","YRD",FALSE,TRUE,FALSE,117.307,31.8766,"三里街","合肥","安徽"
"1272A","Hefei","Anhui","neighbor2","YRD","YRD",FALSE,TRUE,FALSE,117.259,31.8706,"琥珀山庄","合肥","安徽"
"1273A","Hefei","Anhui","neighbor2","YRD","YRD",FALSE,TRUE,FALSE,117.16,31.9051,"董铺水库","合肥","安徽"
"1274A","Hefei","Anhui","neighbor2","YRD","YRD",FALSE,TRUE,FALSE,117.25,31.8572,"长江中路","合肥","安徽"
"1275A","Hefei","Anhui","neighbor2","YRD","YRD",FALSE,TRUE,FALSE,117.266,31.9438,"庐阳区","合肥","安徽"
"1276A","Hefei","Anhui","neighbor2","YRD","YRD",FALSE,TRUE,FALSE,117.336,31.8585,"瑶海区","合肥","安徽"
"1277A","Hefei","Anhui","neighbor2","YRD","YRD",FALSE,TRUE,FALSE,117.302,31.7956,"包河区","合肥","安徽"
"1278A","Hefei","Anhui","neighbor2","YRD","YRD",FALSE,TRUE,FALSE,117.278,31.7386,"滨湖新区","合肥","安徽"
"1279A","Hefei","Anhui","neighbor2","YRD","YRD",FALSE,TRUE,FALSE,117.124,31.8516,"高新区","合肥","安徽"
"1280A","Fuzhou","Fujian","none","none",NA,FALSE,FALSE,FALSE,119.389,26.0542,"鼓山","福州","福建"
"1281A","Fuzhou","Fujian","none","none",NA,FALSE,FALSE,FALSE,119.414,26.0258,"快安","福州","福建"
"1282A","Fuzhou","Fujian","none","none",NA,FALSE,FALSE,FALSE,119.303,26.0392,"师大","福州","福建"
"1283A","Fuzhou","Fujian","none","none",NA,FALSE,FALSE,FALSE,119.299,26.1092,"五四北路","福州","福建"
"1284A","Fuzhou","Fujian","none","none",NA,FALSE,FALSE,FALSE,119.268,26.0797,"杨桥西路","福州","福建"
"1285A","Fuzhou","Fujian","none","none",NA,FALSE,FALSE,FALSE,119.315,26.0753,"紫阳","福州","福建"
"1286A","Xiamen","Fujian","none","none",NA,FALSE,FALSE,FALSE,118.1569444,24.81805556,"溪东","厦门","福建"
"1287A","Xiamen","Fujian","none","none",NA,FALSE,FALSE,FALSE,118.1513889,24.47666667,"洪文","厦门","福建"
"1288A","Xiamen","Fujian","none","none",NA,FALSE,FALSE,FALSE,118.0636111,24.44583333,"鼓浪屿","厦门","福建"
"1290A","Nanchang","Jiangxi","none","none",NA,FALSE,FALSE,FALSE,115.893,28.6844,"省外办","南昌","江西"
"1291A","Nanchang","Jiangxi","none","none",NA,FALSE,FALSE,FALSE,115.8886,28.6839,"省林业公司","南昌","江西"
"1292A","Nanchang","Jiangxi","none","none",NA,FALSE,FALSE,FALSE,115.813,28.7442,"林科所","南昌","江西"
"1293A","Nanchang","Jiangxi","none","none",NA,FALSE,FALSE,FALSE,115.973,28.6969,"京东镇政府","南昌","江西"
"1294A","Nanchang","Jiangxi","none","none",NA,FALSE,FALSE,FALSE,115.852,28.6869,"建工学校","南昌","江西"
"1295A","Nanchang","Jiangxi","none","none",NA,FALSE,FALSE,FALSE,115.892,28.6425,"象湖","南昌","江西"
"1296A","Nanchang","Jiangxi","none","none",NA,FALSE,FALSE,FALSE,115.742,28.7994,"武术学校","南昌","江西"
"1297A","Nanchang","Jiangxi","none","none",NA,FALSE,FALSE,FALSE,115.912,28.6131,"石化","南昌","江西"
"1298A","Nanchang","Jiangxi","none","none",NA,FALSE,FALSE,FALSE,115.931,28.6844,"省站","南昌","江西"
"1299A","Jinan","Shandong","26+2","none","2+26",FALSE,FALSE,FALSE,116.988,36.6114,"科干所","济南","山东"
"1300A","Jinan","Shandong","26+2","none","2+26",FALSE,FALSE,FALSE,116.93,36.67,"农科所","济南","山东"
"1301A","Jinan","Shandong","26+2","none","2+26",FALSE,FALSE,FALSE,117.114,36.6739,"开发区","济南","山东"
"1302A","Jinan","Shandong","26+2","none","2+26",FALSE,FALSE,FALSE,116.989,36.6872,"济南化工厂","济南","山东"
"1303A","Jinan","Shandong","26+2","none","2+26",FALSE,FALSE,FALSE,117.0684,36.6868,"省种子仓库","济南","山东"
"1304A","Jinan","Shandong","26+2","none","2+26",FALSE,FALSE,FALSE,116.943,36.6489,"机床二厂","济南","山东"
"1305A","Jinan","Shandong","26+2","none","2+26",FALSE,FALSE,FALSE,117.049,36.6622,"市监测站","济南","山东"
"1306A","Jinan","Shandong","26+2","none","2+26",FALSE,FALSE,FALSE,116.734,36.5336,"长清党校","济南","山东"
"1307A","Qingdao","Shandong","neighbor2","none",NA,FALSE,FALSE,FALSE,120.6659,36.2403,"仰口","青岛","山东"
"1308A","Qingdao","Shandong","neighbor2","none",NA,FALSE,FALSE,FALSE,120.3905,36.1851,"李沧区子站","青岛","山东"
"1309A","Qingdao","Shandong","neighbor2","none",NA,FALSE,FALSE,FALSE,120.3471,36.0699,"市北区子站","青岛","山东"
"1310A","Qingdao","Shandong","neighbor2","none",NA,FALSE,FALSE,FALSE,120.4134,36.0654,"市南区东部子站","青岛","山东"
"1311A","Qingdao","Shandong","neighbor2","none",NA,FALSE,FALSE,FALSE,120.3664,36.1032,"四方区子站","青岛","山东"
"1312A","Qingdao","Shandong","neighbor2","none",NA,FALSE,FALSE,FALSE,120.2992,36.0543,"市南区西部子站","青岛","山东"
"1313A","Qingdao","Shandong","neighbor2","none",NA,FALSE,FALSE,FALSE,120.4587,36.0851,"崂山区子站","青岛","山东"
"1314A","Qingdao","Shandong","neighbor2","none",NA,FALSE,FALSE,FALSE,120.1964,36.3083,"黄岛区子站","青岛","山东"
"1315A","Qingdao","Shandong","neighbor2","none",NA,FALSE,FALSE,FALSE,120.4001,36.2403,"城阳区子站","青岛","山东"
"1316A","Zhengzhou","Henan","26+2","none","2+26",FALSE,FALSE,FALSE,113.681,34.7545,"烟厂","郑州","河南"
"1317A","Zhengzhou","Henan","26+2","none","2+26",FALSE,FALSE,FALSE,113.641,34.7745,"郑纺机","郑州","河南"
"1318A","Zhengzhou","Henan","26+2","none","2+26",FALSE,FALSE,FALSE,113.675,34.8019,"银行学校","郑州","河南"
"1319A","Zhengzhou","Henan","26+2","none","2+26",FALSE,FALSE,FALSE,113.564,34.802,"供水公司","郑州","河南"
"1320A","Zhengzhou","Henan","26+2","none","2+26",FALSE,FALSE,FALSE,113.727,34.7187,"经开区管委","郑州","河南"
"1321A","Zhengzhou","Henan","26+2","none","2+26",FALSE,FALSE,FALSE,113.734,34.719,"四十七中","郑州","河南"
"1322A","Zhengzhou","Henan","26+2","none","2+26",FALSE,FALSE,FALSE,113.5991,34.7496,"市监测站","郑州","河南"
"1323A","Zhengzhou","Henan","26+2","none","2+26",FALSE,FALSE,FALSE,113.6356,34.7538,"河医大","郑州","河南"
"1324A","Zhengzhou","Henan","26+2","none","2+26",FALSE,FALSE,FALSE,113.6113,34.9162,"岗李水库","郑州","河南"
"1325A","Wuhan","Hubei","neighbor2","none",NA,FALSE,FALSE,FALSE,114.3672,30.5719,"东湖梨园","武汉","湖北"
"1326A","Wuhan","Hubei","neighbor2","none",NA,FALSE,FALSE,FALSE,114.2511,30.5514,"汉阳月湖","武汉","湖北"
"1327A","Wuhan","Hubei","neighbor2","none",NA,FALSE,FALSE,FALSE,114.2836,30.6197,"汉口花桥","武汉","湖北"
"1328A","Wuhan","Hubei","neighbor2","none",NA,FALSE,FALSE,FALSE,114.3006,30.5494,"武昌紫阳","武汉","湖北"
"1329A","Wuhan","Hubei","neighbor2","none",NA,FALSE,FALSE,FALSE,114.4272,30.6103,"青山钢花","武汉","湖北"
"1330A","Wuhan","Hubei","neighbor2","none",NA,FALSE,FALSE,FALSE,114.1525,30.4753,"沌口新区","武汉","湖北"
"1331A","Wuhan","Hubei","neighbor2","none",NA,FALSE,FALSE,FALSE,114.3008,30.5947,"汉口江滩","武汉","湖北"
"1332A","Wuhan","Hubei","neighbor2","none",NA,FALSE,FALSE,FALSE,114.3894,30.4822,"东湖高新","武汉","湖北"
"1333A","Wuhan","Hubei","neighbor2","none",NA,FALSE,FALSE,FALSE,114.2131,30.6414,"吴家山","武汉","湖北"
"1334A","Wuhan","Hubei","neighbor2","none",NA,FALSE,FALSE,FALSE,113.8531,30.2997,"沉湖七壕","武汉","湖北"
"1335A","Changsha","Hunan","none","none",NA,FALSE,FALSE,FALSE,113.0833,28.2325,"经开区环保局","长沙","湖南"
"1336A","Changsha","Hunan","none","none",NA,FALSE,FALSE,FALSE,112.88720000000001,28.2189,"高开区环保局","长沙","湖南"
"1337A","Changsha","Hunan","none","none",NA,FALSE,FALSE,FALSE,113.0792,28.2053,"马坡岭","长沙","湖南"
"1338A","Changsha","Hunan","none","none",NA,FALSE,FALSE,FALSE,112.9394,28.19,"湖南师范大学","长沙","湖南"
"1339A","Changsha","Hunan","none","none",NA,FALSE,FALSE,FALSE,112.9956,28.1442,"雨花区环保局","长沙","湖南"
"1340A","Changsha","Hunan","none","none",NA,FALSE,FALSE,FALSE,112.9792,28.2597,"伍家岭","长沙","湖南"
"1341A","Changsha","Hunan","none","none",NA,FALSE,FALSE,FALSE,113.0014,28.1944,"火车新站","长沙","湖南"
"1342A","Changsha","Hunan","none","none",NA,FALSE,FALSE,FALSE,112.9844,28.1178,"天心区环保局","长沙","湖南"
"1343A","Changsha","Hunan","none","none",NA,FALSE,FALSE,FALSE,112.8908,28.1308,"湖南中医药大学","长沙","湖南"
"1344A","Changsha","Hunan","none","none",NA,FALSE,FALSE,FALSE,112.9958,28.3586,"沙坪","长沙","湖南"
"1345A","Guangzhou","Guangdong","none","PRD","PRD",FALSE,FALSE,TRUE,113.235,23.1422,"广雅中学","广州","广东"
"1346A","Guangzhou","Guangdong","none","PRD","PRD",FALSE,FALSE,TRUE,113.261,23.105,"市五中","广州","广东"
"1347A",NA,NA,NA,NA,NA,FALSE,NA,NA,NA,NA,"天河职幼","广州",NA
"1348A","Guangzhou","Guangdong","none","PRD","PRD",FALSE,FALSE,TRUE,113.348,23.0916,"广东商学院","广州","广东"
"1349A","Guangzhou","Guangdong","none","PRD","PRD",FALSE,FALSE,TRUE,113.433,23.105,"市八十六中","广州","广东"
"1350A","Guangzhou","Guangdong","none","PRD","PRD",FALSE,FALSE,TRUE,113.352,22.9477,"番禺中学","广州","广东"
"1351A","Guangzhou","Guangdong","none","PRD","PRD",FALSE,FALSE,TRUE,113.215,23.3917,"花都师范","广州","广东"
"1352A","Guangzhou","Guangdong","none","PRD","PRD",FALSE,FALSE,TRUE,113.26,23.1331,"市监测站","广州","广东"
"1353A","Guangzhou","Guangdong","none","PRD","PRD",FALSE,FALSE,TRUE,113.568,23.2783,"九龙镇镇龙","广州","广东"
"1354A","Guangzhou","Guangdong","none","PRD","PRD",FALSE,FALSE,TRUE,113.281,23.1569,"麓湖","广州","广东"
"1355A","Guangzhou","Guangdong","none","PRD","PRD",FALSE,FALSE,TRUE,113.589,23.5538,"帽峰山森林公园","广州","广东"
"1356A","Shenzhen","Guangdong","none","PRD","PRD",FALSE,FALSE,TRUE,114.096,22.55,"荔园","深圳","广东"
"1357A","Shenzhen","Guangdong","none","PRD","PRD",FALSE,FALSE,TRUE,114.117,22.5625,"洪湖","深圳","广东"
"1358A","Shenzhen","Guangdong","none","PRD","PRD",FALSE,FALSE,TRUE,113.987,22.5417,"华侨城","深圳","广东"
"1359A","Shenzhen","Guangdong","none","PRD","PRD",FALSE,FALSE,TRUE,113.923,22.5167,"南油","深圳","广东"
"1360A","Shenzhen","Guangdong","none","PRD","PRD",FALSE,FALSE,TRUE,114.263,22.5908,"盐田","深圳","广东"
"1361A","Shenzhen","Guangdong","none","PRD","PRD",FALSE,FALSE,TRUE,114.24,22.7267,"龙岗","深圳","广东"
"1362A","Shenzhen","Guangdong","none","PRD","PRD",FALSE,FALSE,TRUE,113.891,22.5794,"西乡","深圳","广东"
"1363A","Shenzhen","Guangdong","none","PRD","PRD",FALSE,FALSE,TRUE,114.494,22.5422,"南澳","深圳","广东"
"1364A","Shenzhen","Guangdong","none","PRD","PRD",FALSE,FALSE,TRUE,114.41,22.6342,"葵涌","深圳","广东"
"1365A","Shenzhen","Guangdong","none","PRD","PRD",FALSE,FALSE,TRUE,114.297,22.5978,"梅沙","深圳","广东"
"1366A","Shenzhen","Guangdong","none","PRD","PRD",FALSE,FALSE,TRUE,114.085,22.75,"观澜","深圳","广东"
"1367A","Zhuhai","Guangdong","none","PRD","PRD",FALSE,FALSE,TRUE,113.574,22.2611,"吉大","珠海","广东"
"1368A","Zhuhai","Guangdong","none","PRD","PRD",FALSE,FALSE,TRUE,113.495,22.2294,"前山","珠海","广东"
"1369A","Zhuhai","Guangdong","none","PRD","PRD",FALSE,FALSE,TRUE,113.628,22.4251,"唐家","珠海","广东"
"1370A","Zhuhai","Guangdong","none","PRD","PRD",FALSE,FALSE,TRUE,113.299,22.2281,"斗门","珠海","广东"
"1371A","Foshan","Guangdong","none","PRD","PRD",FALSE,FALSE,TRUE,113.134,23.0048,"湾梁","佛山","广东"
"1372A","Foshan","Guangdong","none","PRD","PRD",FALSE,FALSE,TRUE,113.105,23.0395,"华材职中","佛山","广东"
"1373A","Foshan","Guangdong","none","PRD","PRD",FALSE,FALSE,TRUE,113.144,23.0467,"南海气象局","佛山","广东"
"1374A","Foshan","Guangdong","none","PRD","PRD",FALSE,FALSE,TRUE,113.292,22.8054,"顺德苏岗","佛山","广东"
"1375A","Foshan","Guangdong","none","PRD","PRD",FALSE,FALSE,TRUE,113.257,22.7629,"容桂街道办","佛山","广东"
"1376A","Foshan","Guangdong","none","PRD","PRD",FALSE,FALSE,TRUE,112.844,22.8693,"高明孔堂","佛山","广东"
"1377A","Foshan","Guangdong","none","PRD","PRD",FALSE,FALSE,TRUE,112.885,23.1572,"三水监测站","佛山","广东"
"1378A","Foshan","Guangdong","none","PRD","PRD",FALSE,FALSE,TRUE,112.863,23.1886,"三水云东海","佛山","广东"
"1379A","Zhongshan","Guangdong","none","PRD","PRD",FALSE,FALSE,TRUE,113.3769,22.5211,"华柏园","中山","广东"
"1380A","Zhongshan","Guangdong","none","PRD","PRD",FALSE,FALSE,TRUE,113.3881,22.5497,"张溪","中山","广东"
"1381A","Zhongshan","Guangdong","none","PRD","PRD",FALSE,FALSE,TRUE,113.4075,22.5111,"紫马岭","中山","广东"
"1382A","Zhongshan","Guangdong","none","PRD","PRD",FALSE,FALSE,TRUE,113.4411,22.4853,"长江旅游区","中山","广东"
"1383A","Jiangmen","Guangdong","none","PRD","PRD",FALSE,FALSE,TRUE,113.104,22.6069,"北街","江门","广东"
"1384A","Jiangmen","Guangdong","none","PRD","PRD",FALSE,FALSE,TRUE,113.074,22.5811,"西区","江门","广东"
"1385A","Jiangmen","Guangdong","none","PRD","PRD",FALSE,FALSE,TRUE,113.024,22.5328,"圭峰西","江门","广东"
"1386A","Jiangmen","Guangdong","none","PRD","PRD",FALSE,FALSE,TRUE,113.0819,22.5931,"东湖","江门","广东"
"1387A","Dongguan","Guangdong","none","PRD","PRD",FALSE,FALSE,TRUE,113.7819444,23.05361111,"东城主山","东莞","广东"
"1388A","Dongguan","Guangdong","none","PRD","PRD",FALSE,FALSE,TRUE,113.7461111,23.02777778,"南城元岭","东莞","广东"
"1389A","Dongguan","Guangdong","none","PRD","PRD",FALSE,FALSE,TRUE,113.7480556,23.06,"莞城梨川","东莞","广东"
"1390A","Dongguan","Guangdong","none","PRD","PRD",FALSE,FALSE,TRUE,113.7944444,23.01277778,"东城石井","东莞","广东"
"1391A","Dongguan","Guangdong","none","PRD","PRD",FALSE,FALSE,TRUE,113.7383333,22.96583333,"南城西平","东莞","广东"
"1392A","Huizhou","Guangdong","none","PRD","PRD",FALSE,FALSE,TRUE,114.4183,23.0528,"河南岸金山湖子站","惠州","广东"
"1393A","Huizhou","Guangdong","none","PRD","PRD",FALSE,FALSE,TRUE,114.4053,23.08,"下埔横江三路子站","惠州","广东"
"1394A","Huizhou","Guangdong","none","PRD","PRD",FALSE,FALSE,TRUE,114.4103,23.1142,"江北云山西路子站","惠州","广东"
"1395A","Huizhou","Guangdong","none","PRD","PRD",FALSE,FALSE,TRUE,114.3244,22.8172,"惠阳区承修路船湖子站","惠州","广东"
"1396A","Huizhou","Guangdong","none","PRD","PRD",FALSE,FALSE,TRUE,114.5317,22.7422,"大亚湾管委会子站","惠州","广东"
"1397A","Zhaoqing","Guangdong","none","PRD","PRD",FALSE,FALSE,TRUE,112.427,23.0706,"睦岗子站","肇庆","广东"
"1398A","Zhaoqing","Guangdong","none","PRD","PRD",FALSE,FALSE,TRUE,112.471,23.0528,"城中子站","肇庆","广东"
"1399A","Zhaoqing","Guangdong","none","PRD","PRD",FALSE,FALSE,TRUE,112.565,23.1617,"坑口子站","肇庆","广东"
"1400A","Zhaoqing","Guangdong","none","PRD","PRD",FALSE,FALSE,TRUE,112.4722,23.0786,"七星岩子站","肇庆","广东"
"1401A","Nanning","Guangxi","none","none",NA,FALSE,FALSE,FALSE,108.301,22.7875,"振宁花园","南宁","广西"
"1402A","Nanning","Guangxi","none","none",NA,FALSE,FALSE,FALSE,108.316,22.8561,"北湖","南宁","广西"
"1403A","Nanning","Guangxi","none","none",NA,FALSE,FALSE,FALSE,108.321,22.8225,"市监测站","南宁","广西"
"1404A","Nanning","Guangxi","none","none",NA,FALSE,FALSE,FALSE,108.383,22.805,"大自然花园","南宁","广西"
"1405A","Nanning","Guangxi","none","none",NA,FALSE,FALSE,FALSE,108.439,22.7906,"仙葫","南宁","广西"
"1406A","Nanning","Guangxi","none","none",NA,FALSE,FALSE,FALSE,108.239,22.8464,"区农职院","南宁","广西"
"1407A","Nanning","Guangxi","none","none",NA,FALSE,FALSE,FALSE,108.328,22.735,"英华嘉园","南宁","广西"
"1408A","Nanning","Guangxi","none","none",NA,FALSE,FALSE,FALSE,108.244,22.7833,"沙井镇街道办","南宁","广西"
"1409A","Seaport","Hainan",NA,NA,NA,FALSE,NA,NA,110.576,19.9507,"东寨港","海口","海南"
"1410A","Seaport","Hainan",NA,NA,NA,FALSE,NA,NA,110.3232,20.0574,"海南大学","海口","海南"
"1411A","Seaport","Hainan",NA,NA,NA,FALSE,NA,NA,110.283,20.0053,"秀英海南医院","海口","海南"
"1412A","Seaport","Hainan",NA,NA,NA,FALSE,NA,NA,110.338,19.9969,"海南师范大学","海口","海南"
"1413A","Seaport","Hainan",NA,NA,NA,FALSE,NA,NA,110.33,20.0356,"龙华路环保局宿舍","海口","海南"
"1414A","Chongqing","Chongqing","none","none",NA,FALSE,FALSE,FALSE,106.379,29.8272,"缙云山","重庆","重庆"
"1415A","Chongqing","Chongqing","none","none",NA,FALSE,FALSE,FALSE,106.46,29.5736,"高家花园","重庆","重庆"
"1416A","Chongqing","Chongqing","none","none",NA,FALSE,FALSE,FALSE,106.424,29.8264,"天生","重庆","重庆"
"1417A","Chongqing","Chongqing","none","none",NA,FALSE,FALSE,FALSE,106.626,29.7228,"两路","重庆","重庆"
"1418A","Chongqing","Chongqing","none","none",NA,FALSE,FALSE,FALSE,106.296,29.5983,"虎溪","重庆","重庆"
"1419A","Chongqing","Chongqing","none","none",NA,FALSE,FALSE,FALSE,106.54,29.5186,"南坪","重庆","重庆"
"1420A","Chongqing","Chongqing","none","none",NA,FALSE,FALSE,FALSE,106.65,29.6219,"唐家沱","重庆","重庆"
"1421A","Chongqing","Chongqing","none","none",NA,FALSE,FALSE,FALSE,106.634,29.4892,"茶园","重庆","重庆"
"1422A","Chongqing","Chongqing","none","none",NA,FALSE,FALSE,FALSE,106.364,29.4822,"白市驿","重庆","重庆"
"1423A","Chongqing","Chongqing","none","none",NA,FALSE,FALSE,FALSE,106.571,29.5642,"解放碑","重庆","重庆"
"1424A","Chongqing","Chongqing","none","none",NA,FALSE,FALSE,FALSE,106.512,29.5164,"杨家坪","重庆","重庆"
"1425A","Chongqing","Chongqing","none","none",NA,FALSE,FALSE,FALSE,106.617,29.7125,"空港","重庆","重庆"
"1426A","Chongqing","Chongqing","none","none",NA,FALSE,FALSE,FALSE,106.468,29.4892,"新山村","重庆","重庆"
"1427A","Chongqing","Chongqing","none","none",NA,FALSE,FALSE,FALSE,106.562,29.6453,"礼嘉","重庆","重庆"
"1428A","Chongqing","Chongqing","none","none",NA,FALSE,FALSE,FALSE,106.452,29.709,"蔡家","重庆","重庆"
"1429A","Chongqing","Chongqing","none","none",NA,FALSE,FALSE,FALSE,106.513,29.389,"鱼新街","重庆","重庆"
"1430A","Chongqing","Chongqing","none","none",NA,FALSE,FALSE,FALSE,106.591,29.4272,"南泉","重庆","重庆"
"1431A","Chengdu","Sichuan","none","none",NA,FALSE,FALSE,FALSE,103.97275,30.72358333,"金泉两河","成都","四川"
"1432A","Chengdu","Sichuan","none","none",NA,FALSE,FALSE,FALSE,104.176,30.6872,"十里店","成都","四川"
"1433A","Chengdu","Sichuan","none","none",NA,FALSE,FALSE,FALSE,104.079,30.5706,"三瓦窑","成都","四川"
"1434A","Chengdu","Sichuan","none","none",NA,FALSE,FALSE,FALSE,104.1113889,30.63,"沙河铺","成都","四川"
"1435A","Chengdu","Sichuan","none","none",NA,FALSE,FALSE,FALSE,104.074,30.685,"梁家巷","成都","四川"
"1436A",NA,NA,NA,NA,NA,FALSE,NA,NA,NA,NA,"草堂寺","成都",NA
"1437A","Chengdu","Sichuan","none","none",NA,FALSE,FALSE,FALSE,104.054,30.6578,"君平街","成都","四川"
"1438A","Chengdu","Sichuan","none","none",NA,FALSE,FALSE,FALSE,103.613,31.0283,"灵岩寺","成都","四川"
"1439A","Guiyang","Guizhou","none","none",NA,FALSE,FALSE,FALSE,106.6856,26.6029,"马鞍山","贵阳","贵州"
"1440A","Guiyang","Guizhou","none","none",NA,FALSE,FALSE,FALSE,106.6971,26.5689,"市环保站","贵阳","贵州"
"1441A","Guiyang","Guizhou","none","none",NA,FALSE,FALSE,FALSE,106.6243,26.6266,"鉴湖路","贵阳","贵州"
"1442A","Guiyang","Guizhou","none","none",NA,FALSE,FALSE,FALSE,106.7487,26.6343,"燕子冲","贵阳","贵州"
"1443A","Guiyang","Guizhou","none","none",NA,FALSE,FALSE,FALSE,106.6554,26.4364,"碧云窝","贵阳","贵州"
"1444A","Guiyang","Guizhou","none","none",NA,FALSE,FALSE,FALSE,106.6948,26.5155,"中院村","贵阳","贵州"
"1445A","Guiyang","Guizhou","none","none",NA,FALSE,FALSE,FALSE,106.7105,26.6009,"红边门","贵阳","贵州"
"1446A","Guiyang","Guizhou","none","none",NA,FALSE,FALSE,FALSE,106.7164,26.5697,"新华路","贵阳","贵州"
"1447A","Guiyang","Guizhou","none","none",NA,FALSE,FALSE,FALSE,106.6867,26.5495,"太慈桥","贵阳","贵州"
"1449A","Kunming","Yunnan","none","none",NA,FALSE,FALSE,FALSE,102.743,25.0124,"关上","昆明","云南"
"1450A","Kunming","Yunnan","none","none",NA,FALSE,FALSE,FALSE,102.821,24.8885,"呈贡新区","昆明","云南"
"1451A","Kunming","Yunnan","none","none",NA,FALSE,FALSE,FALSE,102.625,24.9624,"西山森林公园","昆明","云南"
"1452A","Kunming","Yunnan","none","none",NA,FALSE,FALSE,FALSE,102.728,25.0836,"龙泉镇","昆明","云南"
"1453A","Kunming","Yunnan","none","none",NA,FALSE,FALSE,FALSE,102.722,25.0405,"东风东路","昆明","云南"
"1454A","Kunming","Yunnan","none","none",NA,FALSE,FALSE,FALSE,102.681,25.067,"金鼎山","昆明","云南"
"1455A","Kunming","Yunnan","none","none",NA,FALSE,FALSE,FALSE,102.638,25.0359,"碧鸡广场","昆明","云南"
"1456A","Lhasa","Xizang","none","none",NA,FALSE,FALSE,FALSE,91.1319,29.6514,"八廓街","拉萨","西藏"
"1457A","Lhasa","Xizang","none","none",NA,FALSE,FALSE,FALSE,91.1221,29.6747,"市环保局","拉萨","西藏"
"1458A","Lhasa","Xizang","none","none",NA,FALSE,FALSE,FALSE,91.0874,29.6475,"区监测站","拉萨","西藏"
"1459A","Lhasa","Xizang","none","none",NA,FALSE,FALSE,FALSE,91.1774,29.6541,"西藏大学","拉萨","西藏"
"1460A","Lhasa","Xizang","none","none",NA,FALSE,FALSE,FALSE,90.9798,29.6588,"区辐射站","拉萨","西藏"
"1461A","Lhasa","Xizang","none","none",NA,FALSE,FALSE,FALSE,91.0834,29.6292,"拉萨火车站","拉萨","西藏"
"1462A","Xi'an","Shaanxi","none","Fenwei","Fenwei",TRUE,FALSE,FALSE,108.882,34.2749,"高压开关厂","西安","陕西"
"1463A","Xi'an","Shaanxi","none","Fenwei","Fenwei",TRUE,FALSE,FALSE,108.993,34.2629,"兴庆小区","西安","陕西"
"1464A","Xi'an","Shaanxi","none","Fenwei","Fenwei",TRUE,FALSE,FALSE,109.06,34.2572,"纺织城","西安","陕西"
"1465A","Xi'an","Shaanxi","none","Fenwei","Fenwei",TRUE,FALSE,FALSE,108.94,34.2324,"小寨","西安","陕西"
"1466A","Xi'an","Shaanxi","none","Fenwei","Fenwei",TRUE,FALSE,FALSE,108.954,34.2713,"市人民体育场","西安","陕西"
"1467A","Xi'an","Shaanxi","none","Fenwei","Fenwei",TRUE,FALSE,FALSE,108.883,34.2303,"高新西区","西安","陕西"
"1468A","Xi'an","Shaanxi","none","Fenwei","Fenwei",TRUE,FALSE,FALSE,108.935,34.3474,"经开区","西安","陕西"
"1469A","Xi'an","Shaanxi","none","Fenwei","Fenwei",TRUE,FALSE,FALSE,108.906,34.1546,"长安区","西安","陕西"
"1470A","Xi'an","Shaanxi","none","Fenwei","Fenwei",TRUE,FALSE,FALSE,109.2,34.6575,"阎良区","西安","陕西"
"1471A","Xi'an","Shaanxi","none","Fenwei","Fenwei",TRUE,FALSE,FALSE,109.2186,34.3731,"临潼区","西安","陕西"
"1472A","Xi'an","Shaanxi","none","Fenwei","Fenwei",TRUE,FALSE,FALSE,108.869,34.378,"草滩","西安","陕西"
"1473A","Xi'an","Shaanxi","none","Fenwei","Fenwei",TRUE,FALSE,FALSE,108.985,34.1978,"曲江文化产业集团","西安","陕西"
"1474A","Xi'an","Shaanxi","none","Fenwei","Fenwei",TRUE,FALSE,FALSE,109.043,34.3274,"广运潭","西安","陕西"
"1475A","Lanzhou","Gansu","none","none",NA,FALSE,FALSE,FALSE,103.712,36.0756,"职工医院","兰州","甘肃"
"1476A","Lanzhou","Gansu","none","none",NA,FALSE,FALSE,FALSE,103.631,36.1031,"兰炼宾馆","兰州","甘肃"
"1477A","Lanzhou","Gansu","none","none",NA,FALSE,FALSE,FALSE,104.148,35.94,"榆中兰大校区","兰州","甘肃"
"1478A","Lanzhou","Gansu","none","none",NA,FALSE,FALSE,FALSE,103.841,36.0725,"生物制品所","兰州","甘肃"
"1479A","Lanzhou","Gansu","none","none",NA,FALSE,FALSE,FALSE,103.831,36.0464,"铁路设计院","兰州","甘肃"
"1480A","Xining","Qinghai","none","none",NA,FALSE,FALSE,FALSE,101.748,36.6428,"市环境监测站","西宁","青海"
"1481A","Xining","Qinghai","none","none",NA,FALSE,FALSE,FALSE,101.749,36.6922,"省医药仓库","西宁","青海"
"1482A","Xining","Qinghai","none","none",NA,FALSE,FALSE,FALSE,101.834,36.5819,"四陆医院","西宁","青海"
"1483A","Xining","Qinghai","none","none",NA,FALSE,FALSE,FALSE,101.524,36.6867,"第五水厂","西宁","青海"
"1484A","Yinchuan","Ningxia Hui","none","none",NA,FALSE,FALSE,FALSE,105.9512,38.6016,"贺兰山马莲口","银川","宁夏"
"1485A","Yinchuan","Ningxia Hui","none","none",NA,FALSE,FALSE,FALSE,106.2682,38.4744,"银湖巷","银川","宁夏"
"1486A","Yinchuan","Ningxia Hui","none","none",NA,FALSE,FALSE,FALSE,106.217,38.4536,"宁安大街","银川","宁夏"
"1487A","Yinchuan","Ningxia Hui","none","none",NA,FALSE,FALSE,FALSE,106.0715,38.4858,"宁化生活区","银川","宁夏"
"1488A","Yinchuan","Ningxia Hui","none","none",NA,FALSE,FALSE,FALSE,106.2328,38.4975,"贺兰山东路","银川","宁夏"
"1489A","Yinchuan","Ningxia Hui","none","none",NA,FALSE,FALSE,FALSE,106.1358,38.5036,"学院路","银川","宁夏"
"1490A","Urumqi","Xinjiang Uygur",NA,NA,NA,FALSE,NA,NA,87.5801,43.8303,"监测站","乌鲁木齐","新疆"
"1491A","Urumqi","Xinjiang Uygur",NA,NA,NA,FALSE,NA,NA,87.6046,43.768,"收费所","乌鲁木齐","新疆"
"1492A","Urumqi","Xinjiang Uygur",NA,NA,NA,FALSE,NA,NA,87.4754,43.9469,"新疆农科院农场","乌鲁木齐","新疆"
"1493A","Urumqi","Xinjiang Uygur",NA,NA,NA,FALSE,NA,NA,87.5525,43.8711,"铁路局","乌鲁木齐","新疆"
"1494A","Urumqi","Xinjiang Uygur",NA,NA,NA,FALSE,NA,NA,87.6432,43.831,"三十一中学","乌鲁木齐","新疆"
"1495A","Urumqi","Xinjiang Uygur",NA,NA,NA,FALSE,NA,NA,87.4171,43.8729,"七十四中学","乌鲁木齐","新疆"
"1496A","Urumqi","Xinjiang Uygur",NA,NA,NA,FALSE,NA,NA,87.6444,43.962,"米东区环保局","乌鲁木齐","新疆"
"1508A","Xiangtan","Hunan","none","none",NA,FALSE,FALSE,FALSE,112.9433,27.8614,"板塘","湘潭","湖南"
"1511A","Xiangtan","Hunan","none","none",NA,FALSE,FALSE,FALSE,112.9118,27.8403,"市监测站","湘潭","湖南"
"1512A","Xiangtan","Hunan","none","none",NA,FALSE,FALSE,FALSE,112.8937,27.8728,"江麓","湘潭","湖南"
"1513A","Xiangtan","Hunan","none","none",NA,FALSE,FALSE,FALSE,112.9227,27.8159,"岳塘","湘潭","湖南"
"1514A","Xiangtan","Hunan","none","none",NA,FALSE,FALSE,FALSE,112.9074,27.9119,"科大","湘潭","湖南"
"1515A","Zhuzhou","Hunan","none","none",NA,FALSE,FALSE,FALSE,113.135,27.8244,"天台山庄","株洲","湖南"
"1518A","Zhuzhou","Hunan","none","none",NA,FALSE,FALSE,FALSE,113.095,27.8867,"株冶医院","株洲","湖南"
"1519A","Zhuzhou","Hunan","none","none",NA,FALSE,FALSE,FALSE,113.167,27.8667,"市四中","株洲","湖南"
"1520A","Zhuzhou","Hunan","none","none",NA,FALSE,FALSE,FALSE,113.143,27.8381,"火车站","株洲","湖南"
"1524A","Zhuzhou","Hunan","none","none",NA,FALSE,FALSE,FALSE,113.13,27.8528,"市监测站","株洲","湖南"
"1552A","Guiyang","Guizhou","none","none",NA,FALSE,FALSE,FALSE,106.805,26.3003,"桐木岭","贵阳","贵州"
"1559A","Zhuzhou","Hunan","none","none",NA,FALSE,FALSE,FALSE,113.251,27.8336,"大京风景区","株洲","湖南"
"1562A","Xiangtan","Hunan","none","none",NA,FALSE,FALSE,FALSE,113.0048,27.9153,"昭山","湘潭","湖南"
"1564A","Xiangtan","Hunan","none","none",NA,FALSE,FALSE,FALSE,112.4876,27.9164,"韶山","湘潭","湖南"
"1585A","Baotou","Nei Mongol","none","none",NA,FALSE,FALSE,FALSE,109.8756,40.6532,"市环境监测站","包头","内蒙古"
"1586A","Baotou","Nei Mongol","none","none",NA,FALSE,FALSE,FALSE,109.8104,40.6575,"包百大楼","包头","内蒙古"
"1587A","Baotou","Nei Mongol","none","none",NA,FALSE,FALSE,FALSE,110.0067,40.5905,"东河城环局","包头","内蒙古"
"1588A","Baotou","Nei Mongol","none","none",NA,FALSE,FALSE,FALSE,109.8538,40.6821,"青山宾馆","包头","内蒙古"
"1589A","Baotou","Nei Mongol","none","none",NA,FALSE,FALSE,FALSE,109.8654,40.6288,"惠龙物流","包头","内蒙古"
"1590A","Baotou","Nei Mongol","none","none",NA,FALSE,FALSE,FALSE,110.0377,40.5546,"东河鸿龙湾","包头","内蒙古"
"1591A","Ordos","Nei Mongol","none","none",NA,FALSE,FALSE,FALSE,110.0023,39.8129,"综合楼","鄂尔多斯","内蒙古"
"1592A","Ordos","Nei Mongol","none","none",NA,FALSE,FALSE,FALSE,109.9486,39.8261,"巴音孟克林场办事处","鄂尔多斯","内蒙古"
"1593A","Ordos","Nei Mongol","none","none",NA,FALSE,FALSE,FALSE,109.7736,39.5986,"康泽苑","鄂尔多斯","内蒙古"
"1594A","Ordos","Nei Mongol","none","none",NA,FALSE,FALSE,FALSE,109.8119,39.5989,"华泰汽车城","鄂尔多斯","内蒙古"
"1595A","Ordos","Nei Mongol","none","none",NA,FALSE,FALSE,FALSE,109.9734,39.7884,"奥林花园","鄂尔多斯","内蒙古"
"1596A","Yingkou","Liaoning",NA,NA,NA,FALSE,NA,NA,122.2414,40.6592,"学府南路","营口","辽宁"
"1597A","Yingkou","Liaoning",NA,NA,NA,FALSE,NA,NA,122.2703,40.7094,"大庆路","营口","辽宁"
"1598A","Yingkou","Liaoning",NA,NA,NA,FALSE,NA,NA,122.215,40.6511,"镜湖西路","营口","辽宁"
"1599A","Yingkou","Liaoning",NA,NA,NA,FALSE,NA,NA,122.1658,40.6789,"西炮台","营口","辽宁"
"1600A","Dandong","Liaoning","none","none",NA,FALSE,FALSE,FALSE,124.3303,40.0625,"江湾东路","丹东","辽宁"
"1601A","Dandong","Liaoning","none","none",NA,FALSE,FALSE,FALSE,124.4256,40.1503,"临江后街","丹东","辽宁"
"1602A","Dandong","Liaoning","none","none",NA,FALSE,FALSE,FALSE,124.3933,40.1461,"元宝山","丹东","辽宁"
"1603A","Dandong","Liaoning","none","none",NA,FALSE,FALSE,FALSE,124.3678,40.1194,"民主桥","丹东","辽宁"
"1604A","Panjin","Liaoning","neighbor2","none",NA,FALSE,FALSE,FALSE,122.0247,41.1556,"开发区","盘锦","辽宁"
"1605A","Panjin","Liaoning","neighbor2","none",NA,FALSE,FALSE,FALSE,122.0539,41.0903,"兴隆台","盘锦","辽宁"
"1606A","Panjin","Liaoning","neighbor2","none",NA,FALSE,FALSE,FALSE,121.835,41.1042,"新生街道","盘锦","辽宁"
"1607A","Huludao","Liaoning","neighbor2","none",NA,FALSE,FALSE,FALSE,120.9092,40.7136,"龙港区","葫芦岛","辽宁"
"1608A","Huludao","Liaoning","neighbor2","none",NA,FALSE,FALSE,FALSE,120.8392,40.7514,"化工街","葫芦岛","辽宁"
"1609A","Huludao","Liaoning","neighbor2","none",NA,FALSE,FALSE,FALSE,120.8478,40.715,"新区","葫芦岛","辽宁"
"1610A","Huludao","Liaoning","neighbor2","none",NA,FALSE,FALSE,FALSE,120.8631,40.7736,"东城区","葫芦岛","辽宁"
"1611A","Quanzhou","Fujian","none","none",NA,FALSE,FALSE,FALSE,118.5819,24.9117,"涂山街","泉州","福建"
"1612A","Quanzhou","Fujian","none","none",NA,FALSE,FALSE,FALSE,118.5972,24.8978,"津头埔","泉州","福建"
"1613A","Quanzhou","Fujian","none","none",NA,FALSE,FALSE,FALSE,118.6663,24.9424,"万安","泉州","福建"
"1614A","Quanzhou","Fujian","none","none",NA,FALSE,FALSE,FALSE,118.6108,24.9617,"清源山","泉州","福建"
"1615A","Laiwu","Shandong","neighbor1","none",NA,FALSE,FALSE,FALSE,117.685,36.205,"植物油厂","莱芜","山东"
"1616A","Laiwu","Shandong","neighbor1","none",NA,FALSE,FALSE,FALSE,117.6789,36.2289,"技术学院","莱芜","山东"
"1617A","Laiwu","Shandong","neighbor1","none",NA,FALSE,FALSE,FALSE,117.715,36.2081,"日升国际","莱芜","山东"
"1618A","Linyi","Shandong","neighbor1","none",NA,FALSE,FALSE,FALSE,118.3418,35.0573,"沂河小区","临沂","山东"
"1619A","Linyi","Shandong","neighbor1","none",NA,FALSE,FALSE,FALSE,118.2939,35.0622,"鲁南制药厂","临沂","山东"
"1620A","Linyi","Shandong","neighbor1","none",NA,FALSE,FALSE,FALSE,118.2764,34.9817,"新光毛纺厂","临沂","山东"
"1621A","Linyi","Shandong","neighbor1","none",NA,FALSE,FALSE,FALSE,118.4023,35.0896,"河东保险公司","临沂","山东"
"1622A","Dezhou","Shandong","26+2","none","2+26",FALSE,FALSE,FALSE,116.3061,37.4664,"儿童乐园","德州","山东"
"1623A","Dezhou","Shandong","26+2","none","2+26",FALSE,FALSE,FALSE,116.2729,37.4504,"黑马集团","德州","山东"
"1624A","Dezhou","Shandong","26+2","none","2+26",FALSE,FALSE,FALSE,116.3189,37.4489,"监理站","德州","山东"
"1625A","Liaocheng","Shandong","26+2","none","2+26",FALSE,FALSE,FALSE,115.9848,36.4372,"区政府","聊城","山东"
"1626A","Liaocheng","Shandong","26+2","none","2+26",FALSE,FALSE,FALSE,115.9968,36.4568,"二轻机","聊城","山东"
"1627A","Liaocheng","Shandong","26+2","none","2+26",FALSE,FALSE,FALSE,115.9835,36.4796,"党校","聊城","山东"
"1628A","Binzhou","Shandong","26+2","none","2+26",FALSE,FALSE,FALSE,118.0062,37.3803,"市环保局","滨州","山东"
"1629A","Binzhou","Shandong","26+2","none","2+26",FALSE,FALSE,FALSE,118.0018,37.3617,"第二水厂","滨州","山东"
"1630A","Binzhou","Shandong","26+2","none","2+26",FALSE,FALSE,FALSE,117.9776,37.393,"北中新校","滨州","山东"
"1631A","Zibo","Shandong","26+2","none","2+26",FALSE,FALSE,FALSE,118.0482,36.8088,"人民公园","淄博","山东"
"1632A","Zibo","Shandong","26+2","none","2+26",FALSE,FALSE,FALSE,118.0448,36.838,"东风化工厂","淄博","山东"
"1633A","Zibo","Shandong","26+2","none","2+26",FALSE,FALSE,FALSE,117.8477,36.497,"双山","淄博","山东"
"1634A","Zibo","Shandong","26+2","none","2+26",FALSE,FALSE,FALSE,117.9544,36.6377,"气象站","淄博","山东"
"1635A","Zibo","Shandong","26+2","none","2+26",FALSE,FALSE,FALSE,118.3092,36.8198,"莆田园","淄博","山东"
"1636A","Zibo","Shandong","26+2","none","2+26",FALSE,FALSE,FALSE,117.8512,36.8041,"三金集团","淄博","山东"
"1637A","Zaozhuang","Shandong","neighbor1","none",NA,FALSE,FALSE,FALSE,117.5564,34.864,"市中区政府","枣庄","山东"
"1638A","Zaozhuang","Shandong","neighbor1","none",NA,FALSE,FALSE,FALSE,117.2852,34.7837,"薛城环保局","枣庄","山东"
"1639A","Zaozhuang","Shandong","neighbor1","none",NA,FALSE,FALSE,FALSE,117.5852,34.7745,"峄城区政府","枣庄","山东"
"1640A","Zaozhuang","Shandong","neighbor1","none",NA,FALSE,FALSE,FALSE,117.732,34.5667,"台儿庄区环保局","枣庄","山东"
"1641A","Zaozhuang","Shandong","neighbor1","none",NA,FALSE,FALSE,FALSE,117.4518,35.0992,"山亭区环保局","枣庄","山东"
"1642A","Yantai","Shandong","neighbor2","none",NA,FALSE,FALSE,FALSE,121.2514,37.5639,"开发区","烟台","山东"
"1643A","Yantai","Shandong","neighbor2","none",NA,FALSE,FALSE,FALSE,121.3719,37.5433,"轴承厂","烟台","山东"
"1644A","Yantai","Shandong","neighbor2","none",NA,FALSE,FALSE,FALSE,121.3181,37.5436,"西郊化工站","烟台","山东"
"1645A","Yantai","Shandong","neighbor2","none",NA,FALSE,FALSE,FALSE,121.4478,37.4822,"莱山环保局","烟台","山东"
"1646A","Yantai","Shandong","neighbor2","none",NA,FALSE,FALSE,FALSE,121.2611,37.4967,"福山环保局","烟台","山东"
"1647A","Yantai","Shandong","neighbor2","none",NA,FALSE,FALSE,FALSE,121.5953,37.3872,"牟平环保局","烟台","山东"
"1648A","Weifang","Shandong","neighbor1","none",NA,FALSE,FALSE,FALSE,119.12,36.7019,"仲裁委","潍坊","山东"
"1649A","Weifang","Shandong","neighbor1","none",NA,FALSE,FALSE,FALSE,119.0919,36.7306,"刘家园","潍坊","山东"
"1650A","Weifang","Shandong","neighbor1","none",NA,FALSE,FALSE,FALSE,119.1425,36.7008,"环保局","潍坊","山东"
"1651A","Weifang","Shandong","neighbor1","none",NA,FALSE,FALSE,FALSE,119.1614,36.6572,"共达公司","潍坊","山东"
"1652A","Weifang","Shandong","neighbor1","none",NA,FALSE,FALSE,FALSE,119.1939,36.7731,"寒亭监测站","潍坊","山东"
"1653A","Jining","Shandong","26+2","none","2+26",FALSE,FALSE,FALSE,116.6305,35.428,"火炬城","济宁","山东"
"1654A","Jining","Shandong","26+2","none","2+26",FALSE,FALSE,FALSE,116.5856,35.4144,"监测站","济宁","山东"
"1655A","Jining","Shandong","26+2","none","2+26",FALSE,FALSE,FALSE,116.5546,35.4039,"电化厂","济宁","山东"
"1656A","Tai'an","Shandong","neighbor1","none",NA,FALSE,FALSE,FALSE,117.1436,36.1942,"监测站","泰安","山东"
"1657A","Tai'an","Shandong","neighbor1","none",NA,FALSE,FALSE,FALSE,117.0881,36.1942,"人口学校","泰安","山东"
"1658A","Tai'an","Shandong","neighbor1","none",NA,FALSE,FALSE,FALSE,117.1081,36.1758,"电力学校","泰安","山东"
"1659A","Rizhao","Shandong","neighbor2","none",NA,FALSE,FALSE,FALSE,119.4641,35.4178,"监测站","日照","山东"
"1660A","Rizhao","Shandong","neighbor2","none",NA,FALSE,FALSE,FALSE,119.5198,35.4234,"市政府广场","日照","山东"
"1661A","Rizhao","Shandong","neighbor2","none",NA,FALSE,FALSE,FALSE,119.54,35.3962,"港务局","日照","山东"
"1662A","Weihai","Shandong","neighbor2","none",NA,FALSE,FALSE,FALSE,122.1206,37.4294,"华夏技校","威海","山东"
"1663A","Weihai","Shandong","neighbor2","none",NA,FALSE,FALSE,FALSE,122.0508,37.5325,"山大分校","威海","山东"
"1664A","Weihai","Shandong","neighbor2","none",NA,FALSE,FALSE,FALSE,122.1067,37.5072,"市监测站","威海","山东"
"1665A","Dongying","Shandong","neighbor1","none",NA,FALSE,FALSE,FALSE,118.5019,37.4658,"西城阳光环保公司","东营","山东"
"1666A","Dongying","Shandong","neighbor1","none",NA,FALSE,FALSE,FALSE,118.6672,37.4314,"市环保局","东营","山东"
"1667A","Dongying","Shandong","neighbor1","none",NA,FALSE,FALSE,FALSE,118.5857,37.4442,"耿井村","东营","山东"
"1668A","Dongying","Shandong","neighbor1","none",NA,FALSE,FALSE,FALSE,118.8192,37.3781,"广南水库","东营","山东"
"1669A","Shaoguan","Guangdong","none","none",NA,FALSE,FALSE,FALSE,113.586606,24.769519,"市八中","韶关","广东"
"1670A","Shaoguan","Guangdong","none","none",NA,FALSE,FALSE,FALSE,113.5593889,24.81119444,"碧湖山庄","韶关","广东"
"1671A","Shaoguan","Guangdong","none","none",NA,FALSE,FALSE,FALSE,113.598061,24.795928,"园林处","韶关","广东"
"1672A","Shaoguan","Guangdong","none","none",NA,FALSE,FALSE,FALSE,113.6734722,24.77908333,"韶关学院","韶关","广东"
"1673A","Shaoguan","Guangdong","none","none",NA,FALSE,FALSE,FALSE,113.5970833,24.68636111,"曲江监测站","韶关","广东"
"1674A","Shantou","Guangdong","none","none",NA,FALSE,FALSE,FALSE,116.6794,23.3667,"金平子站","汕头","广东"
"1675A","Shantou","Guangdong","none","none",NA,FALSE,FALSE,FALSE,116.7244,23.3633,"龙湖子站","汕头","广东"
"1676A","Shantou","Guangdong","none","none",NA,FALSE,FALSE,FALSE,116.7258,23.2775,"濠江子站","汕头","广东"
"1677A","Shantou","Guangdong","none","none",NA,FALSE,FALSE,FALSE,116.7519,23.4714,"澄海子站","汕头","广东"
"1678A","Shantou","Guangdong","none","none",NA,FALSE,FALSE,FALSE,116.6092,23.2539,"潮阳子站","汕头","广东"
"1679A","Shantou","Guangdong","none","none",NA,FALSE,FALSE,FALSE,116.4019,23.2536,"潮南子站","汕头","广东"
"1680A","Zhanjiang","Guangdong","none","none",NA,FALSE,FALSE,FALSE,110.3539,21.2706,"湛江影剧院","湛江","广东"
"1681A","Zhanjiang","Guangdong","none","none",NA,FALSE,FALSE,FALSE,110.3928,21.2228,"市环境监测站","湛江","广东"
"1682A","Zhanjiang","Guangdong","none","none",NA,FALSE,FALSE,FALSE,110.4019,21.1997,"环保局宿舍","湛江","广东"
"1683A","Zhanjiang","Guangdong","none","none",NA,FALSE,FALSE,FALSE,110.4111,21.2028,"霞山游泳场","湛江","广东"
"1684A","Zhanjiang","Guangdong","none","none",NA,FALSE,FALSE,FALSE,110.3316,21.2679,"麻章区环保局","湛江","广东"
"1685A","Zhanjiang","Guangdong","none","none",NA,FALSE,FALSE,FALSE,110.4558,21.2567,"坡头区环保局","湛江","广东"
"1686A","Maoming","Guangdong","none","none",NA,FALSE,FALSE,FALSE,111.0286,21.4689,"市环保局茂港分局","茂名","广东"
"1687A","Maoming","Guangdong","none","none",NA,FALSE,FALSE,FALSE,110.9294,21.6533,"茂石化七小","茂名","广东"
"1688A","Maoming","Guangdong","none","none",NA,FALSE,FALSE,FALSE,110.9067,21.6669,"健康路","茂名","广东"
"1689A","Maoming","Guangdong","none","none",NA,FALSE,FALSE,FALSE,110.8592,21.6828,"高岭","茂名","广东"
"1690A","Meizhou","Guangdong","none","none",NA,FALSE,FALSE,FALSE,116.1278,24.3289,"嘉应大学","梅州","广东"
"1691A","Meizhou","Guangdong","none","none",NA,FALSE,FALSE,FALSE,116.0797,24.2719,"梅县新城","梅州","广东"
"1692A","Meizhou","Guangdong","none","none",NA,FALSE,FALSE,FALSE,116.1248,24.2654,"环境监控中心","梅州","广东"
"1693A","Shanwei","Guangdong","none","none",NA,FALSE,FALSE,FALSE,115.3653,22.775,"市环保局","汕尾","广东"
"1694A","Shanwei","Guangdong","none","none",NA,FALSE,FALSE,FALSE,115.3706,22.7898,"市政府","汕尾","广东"
"1695A","Shanwei","Guangdong","none","none",NA,FALSE,FALSE,FALSE,115.3622,22.7925,"新城中学","汕尾","广东"
"1696A","Heyuan","Guangdong","none","none",NA,FALSE,FALSE,FALSE,114.6778,23.7569,"源西","河源","广东"
"1697A","Heyuan","Guangdong","none","none",NA,FALSE,FALSE,FALSE,114.6944,23.7586,"东埔","河源","广东"
"1698A","Heyuan","Guangdong","none","none",NA,FALSE,FALSE,FALSE,114.6892,23.7233,"老城","河源","广东"
"1699A","Yangjiang","Guangdong","none","none",NA,FALSE,FALSE,FALSE,111.9786,21.8586,"鸳鸯湖","阳江","广东"
"1700A","Yangjiang","Guangdong","none","none",NA,FALSE,FALSE,FALSE,111.9508,21.8536,"南恩路","阳江","广东"
"1701A","Yangjiang","Guangdong","none","none",NA,FALSE,FALSE,FALSE,111.9494,21.865,"马南垌","阳江","广东"
"1702A","Qingyuan","Guangdong","none","none",NA,FALSE,FALSE,FALSE,113.0425,23.6936,"环保大楼","清远","广东"
"1703A","Qingyuan","Guangdong","none","none",NA,FALSE,FALSE,FALSE,113.0208,23.7106,"凤城街办","清远","广东"
"1704A","Qingyuan","Guangdong","none","none",NA,FALSE,FALSE,FALSE,113.0622,23.6272,"高新区","清远","广东"
"1705A","Chaozhou","Guangdong","none","none",NA,FALSE,FALSE,FALSE,116.6339,23.6714,"西园路","潮州","广东"
"1706A","Chaozhou","Guangdong","none","none",NA,FALSE,FALSE,FALSE,116.6447,23.6706,"档案局","潮州","广东"
"1707A","Chaozhou","Guangdong","none","none",NA,FALSE,FALSE,FALSE,116.6175,23.6531,"市政公司","潮州","广东"
"1708A","Jieyang","Guangdong","none","none",NA,FALSE,FALSE,FALSE,116.3697,23.5353,"新兴","揭阳","广东"
"1709A","Jieyang","Guangdong","none","none",NA,FALSE,FALSE,FALSE,116.3242,23.5486,"西马","揭阳","广东"
"1710A","Jieyang","Guangdong","none","none",NA,FALSE,FALSE,FALSE,116.3594,23.5739,"东兴","揭阳","广东"
"1711A","Jieyang","Guangdong","none","none",NA,FALSE,FALSE,FALSE,116.4094,23.5292,"渔湖","揭阳","广东"
"1712A","Yunfu","Guangdong","none","none",NA,FALSE,FALSE,FALSE,112.0392,22.9169,"新市府","云浮","广东"
"1713A","Yunfu","Guangdong","none","none",NA,FALSE,FALSE,FALSE,112.0369,22.9394,"市监测站","云浮","广东"
"1714A","Yunfu","Guangdong","none","none",NA,FALSE,FALSE,FALSE,112.0539,22.9539,"牧羊","云浮","广东"
"1715A","Yuxi","Yunnan","none","none",NA,FALSE,FALSE,FALSE,102.5778,24.3694,"东风水库","玉溪","云南"
"1716A","Yuxi","Yunnan","none","none",NA,FALSE,FALSE,FALSE,102.5433,24.3603,"市监测站","玉溪","云南"
"1717A","Yuxi","Yunnan","none","none",NA,FALSE,FALSE,FALSE,102.4964,24.3411,"大营街镇","玉溪","云南"
"1718A","Heze","Shandong","26+2","none","2+26",FALSE,FALSE,FALSE,115.42277,35.248889,"市气象局","菏泽","山东"
"1719A","Heze","Shandong","26+2","none","2+26",FALSE,FALSE,FALSE,115.474722,35.2375,"市政协","菏泽","山东"
"1720A","Heze","Shandong","26+2","none","2+26",FALSE,FALSE,FALSE,115.455,35.27,"菏泽学院","菏泽","山东"
"1721A","Datong","Shanxi","neighbor1","none",NA,FALSE,FALSE,FALSE,113.3819,40.1097,"果树场","大同","山西"
"1722A","Datong","Shanxi","neighbor1","none",NA,FALSE,FALSE,FALSE,113.2858,40.0958,"红旗广场","大同","山西"
"1723A","Datong","Shanxi","neighbor1","none",NA,FALSE,FALSE,FALSE,113.2994,40.0758,"云冈宾馆","大同","山西"
"1724A","Datong","Shanxi","neighbor1","none",NA,FALSE,FALSE,FALSE,113.3444,40.0917,"大同大学","大同","山西"
"1725A","Datong","Shanxi","neighbor1","none",NA,FALSE,FALSE,FALSE,113.2661,40.1269,"安家小村","大同","山西"
"1726A","Datong","Shanxi","neighbor1","none",NA,FALSE,FALSE,FALSE,113.2711,40.0844,"教育学院","大同","山西"
"1727A","Changzhi","Shanxi","26+2","none","2+26",FALSE,FALSE,FALSE,113.1097,36.1542,"清华站","长治","山西"
"1728A","Changzhi","Shanxi","26+2","none","2+26",FALSE,FALSE,FALSE,113.0972,36.1939,"监测站","长治","山西"
"1729A","Changzhi","Shanxi","26+2","none","2+26",FALSE,FALSE,FALSE,113.1466,36.1961,"澳瑞特","长治","山西"
"1730A","Changzhi","Shanxi","26+2","none","2+26",FALSE,FALSE,FALSE,113.0886,36.2126,"审计局","长治","山西"
"1731A","Changzhi","Shanxi","26+2","none","2+26",FALSE,FALSE,FALSE,113.0844444,36.1855,"长治八中","长治","山西"
"1732A","Linfen","Shanxi","neighbor1","Fenwei","Fenwei",TRUE,FALSE,FALSE,111.5125,36.0978,"市监测站","临汾","山西"
"1733A","Linfen","Shanxi","neighbor1","Fenwei","Fenwei",TRUE,FALSE,FALSE,111.5531,36.0783,"临钢医院","临汾","山西"
"1734A","Linfen","Shanxi","neighbor1","Fenwei","Fenwei",TRUE,FALSE,FALSE,111.5028,36.0714,"技工学校","临汾","山西"
"1735A","Linfen","Shanxi","neighbor1","Fenwei","Fenwei",TRUE,FALSE,FALSE,111.5169,36.0822,"工商学校","临汾","山西"
"1736A","Linfen","Shanxi","neighbor1","Fenwei","Fenwei",TRUE,FALSE,FALSE,111.5025,36.0875,"市委","临汾","山西"
"1737A","Linfen","Shanxi","neighbor1","Fenwei","Fenwei",TRUE,FALSE,FALSE,111.4917,36.0417,"南机场","临汾","山西"
"1738A","Yangquan","Shanxi","26+2","none","2+26",FALSE,FALSE,FALSE,113.5753,37.8564,"市中心","阳泉","山西"
"1739A","Yangquan","Shanxi","26+2","none","2+26",FALSE,FALSE,FALSE,113.4922,37.8792,"赛鱼","阳泉","山西"
"1740A","Yangquan","Shanxi","26+2","none","2+26",FALSE,FALSE,FALSE,113.5922,37.8561,"南庄","阳泉","山西"
"1741A","Yangquan","Shanxi","26+2","none","2+26",FALSE,FALSE,FALSE,113.6292,37.8531,"白羊墅","阳泉","山西"
"1742A","Yangquan","Shanxi","26+2","none","2+26",FALSE,FALSE,FALSE,113.5689,37.8694,"平坦","阳泉","山西"
"1743A","Yangquan","Shanxi","26+2","none","2+26",FALSE,FALSE,FALSE,113.5158,37.85,"大阳泉","阳泉","山西"
"1744A","Chifeng","Nei Mongol","none","none",NA,FALSE,FALSE,FALSE,118.9233,42.2814,"松山一中","赤峰","内蒙古"
"1745A","Chifeng","Nei Mongol","none","none",NA,FALSE,FALSE,FALSE,118.9572,42.2725,"哈达街","赤峰","内蒙古"
"1746A","Chifeng","Nei Mongol","none","none",NA,FALSE,FALSE,FALSE,118.8789,42.2556,"天义路","赤峰","内蒙古"
"1747A","Chifeng","Nei Mongol","none","none",NA,FALSE,FALSE,FALSE,119.2719,42.0317,"松山路","赤峰","内蒙古"
"1748A","Anshan","Liaoning","none","none",NA,FALSE,FALSE,FALSE,123.044,41.1196,"深沟寺","鞍山","辽宁"
"1749A","Anshan","Liaoning","none","none",NA,FALSE,FALSE,FALSE,123.011,41.0931,"太阳城","鞍山","辽宁"
"1750A","Anshan","Liaoning","none","none",NA,FALSE,FALSE,FALSE,123.0485,41.1442,"太平","鞍山","辽宁"
"1751A","Anshan","Liaoning","none","none",NA,FALSE,FALSE,FALSE,122.9642,41.0971,"铁西三道街","鞍山","辽宁"
"1752A","Anshan","Liaoning","none","none",NA,FALSE,FALSE,FALSE,122.9481,41.0833,"铁西工业园区","鞍山","辽宁"
"1753A","Anshan","Liaoning","none","none",NA,FALSE,FALSE,FALSE,123.0156,41.0831,"明达新区","鞍山","辽宁"
"1754A","Anshan","Liaoning","none","none",NA,FALSE,FALSE,FALSE,123.1289,41.0228,"千山","鞍山","辽宁"
"1755A","Fushun","Liaoning","none","none",NA,FALSE,FALSE,FALSE,123.81,41.8469,"望花区","抚顺","辽宁"
"1756A","Fushun","Liaoning","none","none",NA,FALSE,FALSE,FALSE,123.9169,41.8828,"顺城区","抚顺","辽宁"
"1757A","Fushun","Liaoning","none","none",NA,FALSE,FALSE,FALSE,124.0383,41.8625,"东洲区","抚顺","辽宁"
"1758A","Fushun","Liaoning","none","none",NA,FALSE,FALSE,FALSE,123.9,41.8594,"新抚区","抚顺","辽宁"
"1759A","Fushun","Liaoning","none","none",NA,FALSE,FALSE,FALSE,124.0878,41.8864,"大伙房水库","抚顺","辽宁"
"1760A","Fushun","Liaoning","none","none",NA,FALSE,FALSE,FALSE,123.7117,41.8417,"沈抚新城","抚顺","辽宁"
"1761A","Benxi","Liaoning","none","none",NA,FALSE,FALSE,FALSE,123.8436,41.3283,"大峪","本溪","辽宁"
"1762A","Benxi","Liaoning","none","none",NA,FALSE,FALSE,FALSE,123.7528,41.3369,"溪湖","本溪","辽宁"
"1763A","Benxi","Liaoning","none","none",NA,FALSE,FALSE,FALSE,123.7308,41.3047,"彩屯","本溪","辽宁"
"1764A","Benxi","Liaoning","none","none",NA,FALSE,FALSE,FALSE,123.7669,41.2864,"东明","本溪","辽宁"
"1765A","Benxi","Liaoning","none","none",NA,FALSE,FALSE,FALSE,123.7989,41.2692,"新立屯","本溪","辽宁"
"1766A","Benxi","Liaoning","none","none",NA,FALSE,FALSE,FALSE,123.8142,41.3472,"威宁","本溪","辽宁"
"1767A","Jinzhou","Liaoning","neighbor2","none",NA,FALSE,FALSE,FALSE,121.0986,41.0781,"南山","锦州","辽宁"
"1768A","Jinzhou","Liaoning","neighbor2","none",NA,FALSE,FALSE,FALSE,121.045,40.8333,"开发区","锦州","辽宁"
"1769A","Jinzhou","Liaoning","neighbor2","none",NA,FALSE,FALSE,FALSE,121.2008,41.1219,"百股街道","锦州","辽宁"
"1770A","Jinzhou","Liaoning","neighbor2","none",NA,FALSE,FALSE,FALSE,121.1178,41.1222,"天安街道","锦州","辽宁"
"1771A","Jinzhou","Liaoning","neighbor2","none",NA,FALSE,FALSE,FALSE,121.1303,41.1386,"北湖公园","锦州","辽宁"
"1772A","Jilin","Jilin","none","none",NA,FALSE,FALSE,FALSE,126.555,43.8875,"哈达湾","吉林","吉林"
"1773A","Jilin","Jilin","none","none",NA,FALSE,FALSE,FALSE,126.5844,43.8358,"东局子","吉林","吉林"
"1774A","Jilin","Jilin","none","none",NA,FALSE,FALSE,FALSE,126.4978,43.8228,"电力学院","吉林","吉林"
"1775A","Jilin","Jilin","none","none",NA,FALSE,FALSE,FALSE,126.5786,43.8947,"江北","吉林","吉林"
"1776A","Jilin","Jilin","none","none",NA,FALSE,FALSE,FALSE,126.55,43.8256,"江南公园","吉林","吉林"
"1777A",NA,NA,NA,NA,NA,FALSE,NA,NA,NA,NA,"农科院","吉林",NA
"1778A","Jilin","Jilin","none","none",NA,FALSE,FALSE,FALSE,126.6772,43.7256,"丰满","吉林","吉林"
"1779A","Qiqihar","Heilongjiang","none","none",NA,FALSE,FALSE,FALSE,123.9305,47.3636,"安居小区","齐齐哈尔","黑龙江"
"1780A","Qiqihar","Heilongjiang","none","none",NA,FALSE,FALSE,FALSE,123.9305,47.3386,"中心广场","齐齐哈尔","黑龙江"
"1781A","Qiqihar","Heilongjiang","none","none",NA,FALSE,FALSE,FALSE,123.9483,47.3227,"农牧车辆厂","齐齐哈尔","黑龙江"
"1782A","Qiqihar","Heilongjiang","none","none",NA,FALSE,FALSE,FALSE,123.6261,47.203,"富区环保局","齐齐哈尔","黑龙江"
"1783A","Qiqihar","Heilongjiang","none","none",NA,FALSE,FALSE,FALSE,123.945,47.2988,"市环境监测站","齐齐哈尔","黑龙江"
"1784A","Mudanjiang","Heilongjiang","none","none",NA,FALSE,FALSE,FALSE,129.61,44.561,"环保大楼　","牡丹江","黑龙江"
"1785A","Mudanjiang","Heilongjiang","none","none",NA,FALSE,FALSE,FALSE,129.6115,44.5782,"文化广场　","牡丹江","黑龙江"
"1786A","Mudanjiang","Heilongjiang","none","none",NA,FALSE,FALSE,FALSE,129.5902,44.5952,"第一医院","牡丹江","黑龙江"
"1787A","Mudanjiang","Heilongjiang","none","none",NA,FALSE,FALSE,FALSE,129.6459,44.6104,"机车工厂","牡丹江","黑龙江"
"1788A","Mudanjiang","Heilongjiang","none","none",NA,FALSE,FALSE,FALSE,129.6386,44.5462,"第一中学","牡丹江","黑龙江"
"1789A","Daqing","Heilongjiang","none","none",NA,FALSE,FALSE,FALSE,124.8354,46.0347,"大同区","大庆","黑龙江"
"1790A","Daqing","Heilongjiang","none","none",NA,FALSE,FALSE,FALSE,125.112,46.528,"龙凤区","大庆","黑龙江"
"1791A","Daqing","Heilongjiang","none","none",NA,FALSE,FALSE,FALSE,124.8847,46.3991,"红岗区","大庆","黑龙江"
"1792A","Daqing","Heilongjiang","none","none",NA,FALSE,FALSE,FALSE,125.1386,46.5776,"萨尔图区","大庆","黑龙江"
"1793A","Daqing","Heilongjiang","none","none",NA,FALSE,FALSE,FALSE,124.8648,46.6219,"让胡路区","大庆","黑龙江"
"1794A","Wuhu","Anhui","neighbor2","YRD","YRD",FALSE,TRUE,FALSE,118.3528,31.3508,"监测站","芜湖","安徽"
"1795A","Wuhu","Anhui","neighbor2","YRD","YRD",FALSE,TRUE,FALSE,118.37,31.4189,"科创中心","芜湖","安徽"
"1796A","Wuhu","Anhui","neighbor2","YRD","YRD",FALSE,TRUE,FALSE,118.3708,31.3178,"四水厂","芜湖","安徽"
"1797A","Wuhu","Anhui","neighbor2","YRD","YRD",FALSE,TRUE,FALSE,118.4022,31.3839,"五七二零厂","芜湖","安徽"
"1798A","Ma'anshan","Anhui","neighbor2","YRD","YRD",FALSE,TRUE,FALSE,118.5058,31.6861,"湖东路四小","马鞍山","安徽"
"1799A","Ma'anshan","Anhui","neighbor2","YRD","YRD",FALSE,TRUE,FALSE,118.4828,31.6411,"天平服装","马鞍山","安徽"
"1800A","Ma'anshan","Anhui","neighbor2","YRD","YRD",FALSE,TRUE,FALSE,118.5106,31.7506,"慈湖二小","马鞍山","安徽"
"1801A","Ma'anshan","Anhui","neighbor2","YRD","YRD",FALSE,TRUE,FALSE,118.48,31.6928,"马钢动力厂","马鞍山","安徽"
"1802A","Ma'anshan","Anhui","neighbor2","YRD","YRD",FALSE,TRUE,FALSE,118.6439,31.7133,"市教育基地","马鞍山","安徽"
"1803A","Jiujiang","Jiangxi","none","none",NA,FALSE,FALSE,FALSE,115.9872,29.6816,"十里","九江","江西"
"1804A","Jiujiang","Jiangxi","none","none",NA,FALSE,FALSE,FALSE,115.9581,29.7048,"茅山头","九江","江西"
"1805A","Jiujiang","Jiangxi","none","none",NA,FALSE,FALSE,FALSE,115.988,29.7292,"西园","九江","江西"
"1806A","Jiujiang","Jiangxi","none","none",NA,FALSE,FALSE,FALSE,116.0174,29.6535,"五七二七厂","九江","江西"
"1807A","Jiujiang","Jiangxi","none","none",NA,FALSE,FALSE,FALSE,116.0628,29.6926,"水科所","九江","江西"
"1808A","Jiujiang","Jiangxi","none","none",NA,FALSE,FALSE,FALSE,115.9114,29.6039,"综合工业园","九江","江西"
"1809A","Jiujiang","Jiangxi","none","none",NA,FALSE,FALSE,FALSE,116.0726,29.7534,"石化总厂","九江","江西"
"1810A","Jiujiang","Jiangxi","none","none",NA,FALSE,FALSE,FALSE,115.9936,29.5867,"庐山气象台","九江","江西"
"1811A","Luoyang","Henan","neighbor1","Fenwei","Fenwei",TRUE,FALSE,FALSE,112.3628,34.6692,"中信二小","洛阳","河南"
"1812A","Luoyang","Henan","neighbor1","Fenwei","Fenwei",TRUE,FALSE,FALSE,112.3939,34.6511,"市委党校","洛阳","河南"
"1813A","Luoyang","Henan","neighbor1","Fenwei","Fenwei",TRUE,FALSE,FALSE,112.4333,34.67,"市监测站","洛阳","河南"
"1814A","Luoyang","Henan","neighbor1","Fenwei","Fenwei",TRUE,FALSE,FALSE,112.4664,34.6869,"豫西宾馆","洛阳","河南"
"1815A","Luoyang","Henan","neighbor1","Fenwei","Fenwei",TRUE,FALSE,FALSE,112.4831,34.6869,"河南林校","洛阳","河南"
"1816A","Luoyang","Henan","neighbor1","Fenwei","Fenwei",TRUE,FALSE,FALSE,112.3844,34.6231,"开发区管委会","洛阳","河南"
"1817A","Luoyang","Henan","neighbor1","Fenwei","Fenwei",TRUE,FALSE,FALSE,112.4275,34.6258,"市委新办公区","洛阳","河南"
"1818A","Anyang","Henan","26+2","none","2+26",FALSE,FALSE,FALSE,114.483,36.061,"棉研所","安阳","河南"
"1819A","Anyang","Henan","26+2","none","2+26",FALSE,FALSE,FALSE,114.32,36.086,"红庙街","安阳","河南"
"1820A","Anyang","Henan","26+2","none","2+26",FALSE,FALSE,FALSE,114.358,36.087,"银杏小区","安阳","河南"
"1821A","Anyang","Henan","26+2","none","2+26",FALSE,FALSE,FALSE,114.3931,36.0883,"环保局","安阳","河南"
"1822A","Anyang","Henan","26+2","none","2+26",FALSE,FALSE,FALSE,114.286,36.11,"铁佛寺","安阳","河南"
"1823A","Kaifeng","Henan","26+2","none","2+26",FALSE,FALSE,FALSE,114.3406,34.8022,"河大一附院","开封","河南"
"1824A","Kaifeng","Henan","26+2","none","2+26",FALSE,FALSE,FALSE,114.3389,34.7781,"肿瘤医院","开封","河南"
"1825A","Kaifeng","Henan","26+2","none","2+26",FALSE,FALSE,FALSE,114.3733,34.7975,"妇幼保健院","开封","河南"
"1826A","Kaifeng","Henan","26+2","none","2+26",FALSE,FALSE,FALSE,114.2886,34.7967,"世纪星幼儿园","开封","河南"
"1827A","Jiaozuo","Henan","26+2","none","2+26",FALSE,FALSE,FALSE,113.261,35.235,"市监测站　","焦作","河南"
"1828A","Jiaozuo","Henan","26+2","none","2+26",FALSE,FALSE,FALSE,113.227,35.213,"市环保局　","焦作","河南"
"1829A","Jiaozuo","Henan","26+2","none","2+26",FALSE,FALSE,FALSE,113.2464,35.1764,"高新区政府","焦作","河南"
"1830A","Jiaozuo","Henan","26+2","none","2+26",FALSE,FALSE,FALSE,113.1992,35.259,"影视城","焦作","河南"
"1831A","Pingdingshan","Henan","neighbor1","none",NA,FALSE,FALSE,FALSE,113.3064,33.7214,"高压开关厂","平顶山","河南"
"1832A","Pingdingshan","Henan","neighbor1","none",NA,FALSE,FALSE,FALSE,113.322,33.721,"新华旅馆","平顶山","河南"
"1833A","Pingdingshan","Henan","neighbor1","none",NA,FALSE,FALSE,FALSE,113.292,33.739,"规划设计院","平顶山","河南"
"1834A","Pingdingshan","Henan","neighbor1","none",NA,FALSE,FALSE,FALSE,113.182,33.737,"平顶山工学院","平顶山","河南"
"1835A","Sanmenxia","Henan","neighbor2","Fenwei","Fenwei",TRUE,FALSE,FALSE,111.1928,34.7772,"市政府","三门峡","河南"
"1836A","Sanmenxia","Henan","neighbor2","Fenwei","Fenwei",TRUE,FALSE,FALSE,111.158,34.794,"开发区","三门峡","河南"
"1837A","Sanmenxia","Henan","neighbor2","Fenwei","Fenwei",TRUE,FALSE,FALSE,111.1858,34.7917,"二  印","三门峡","河南"
"1838A","Sanmenxia","Henan","neighbor2","Fenwei","Fenwei",TRUE,FALSE,FALSE,111.1489,34.7997,"风景区","三门峡","河南"
"1839A","Yichang","Hubei","none","none",NA,FALSE,FALSE,FALSE,111.3009,30.7157,"四零三","宜昌","湖北"
"1840A","Yichang","Hubei","none","none",NA,FALSE,FALSE,FALSE,111.2992,30.698,"白龙岗","宜昌","湖北"
"1841A","Yichang","Hubei","none","none",NA,FALSE,FALSE,FALSE,111.3549,30.6463,"伍家岗","宜昌","湖北"
"1842A","Yichang","Hubei","none","none",NA,FALSE,FALSE,FALSE,111.268,30.696,"点军区","宜昌","湖北"
"1843A","Yichang","Hubei","none","none",NA,FALSE,FALSE,FALSE,111.3296,30.7819,"夷陵区","宜昌","湖北"
"1844A","Jingzhou","Hubei","none","none",NA,FALSE,FALSE,FALSE,112.2551,30.3175,"市图书馆","荆州","湖北"
"1845A","Jingzhou","Hubei","none","none",NA,FALSE,FALSE,FALSE,112.2068,30.3515,"市委党校","荆州","湖北"
"1846A","Jingzhou","Hubei","none","none",NA,FALSE,FALSE,FALSE,112.2887,30.3055,"科融环保","荆州","湖北"
"1847A","Yueyang","Hunan","none","none",NA,FALSE,FALSE,FALSE,113.1094,29.3578,"南湖风景区","岳阳","湖南"
"1848A","Yueyang","Hunan","none","none",NA,FALSE,FALSE,FALSE,113.1493,29.4251,"城陵矶","岳阳","湖南"
"1849A","Yueyang","Hunan","none","none",NA,FALSE,FALSE,FALSE,113.1772,29.3678,"开发区","岳阳","湖南"
"1850A","Yueyang","Hunan","none","none",NA,FALSE,FALSE,FALSE,113.2621,29.4758,"云溪区","岳阳","湖南"
"1851A","Yueyang","Hunan","none","none",NA,FALSE,FALSE,FALSE,112.9943,29.4402,"君山区","岳阳","湖南"
"1852A","Yueyang","Hunan","none","none",NA,FALSE,FALSE,FALSE,113.2117,29.355,"金凤水库","岳阳","湖南"
"1853A","Changde","Hunan","none","none",NA,FALSE,FALSE,FALSE,111.7044,29.0244,"市监测站","常德","湖南"
"1854A","Changde","Hunan","none","none",NA,FALSE,FALSE,FALSE,111.6975,28.9703,"市二中","常德","湖南"
"1855A","Changde","Hunan","none","none",NA,FALSE,FALSE,FALSE,111.6753,29.0239,"鼎城区环保局","常德","湖南"
"1856A","Changde","Hunan","none","none",NA,FALSE,FALSE,FALSE,111.6794,29.0381,"市技术监督局","常德","湖南"
"1857A","Changde","Hunan","none","none",NA,FALSE,FALSE,FALSE,111.7158,29.1456,"白鹤山","常德","湖南"
"1858A","Zhangjiajie","Hunan","none","none",NA,FALSE,FALSE,FALSE,110.48,29.1389,"永定新区","张家界","湖南"
"1859A","Zhangjiajie","Hunan","none","none",NA,FALSE,FALSE,FALSE,110.4697,29.1242,"电业局","张家界","湖南"
"1860A","Zhangjiajie","Hunan","none","none",NA,FALSE,FALSE,FALSE,110.5594,29.3547,"未央路","张家界","湖南"
"1861A","Zhangjiajie","Hunan","none","none",NA,FALSE,FALSE,FALSE,110.4417,29.315,"袁家界","张家界","湖南"
"1862A","Guilin","Guangxi","none","none",NA,FALSE,FALSE,FALSE,110.4144,25.3167,"电子科大尧山校区","桂林","广西"
"1863A","Guilin","Guangxi","none","none",NA,FALSE,FALSE,FALSE,110.2819,25.2697,"监测站","桂林","广西"
"1864A","Guilin","Guangxi","none","none",NA,FALSE,FALSE,FALSE,110.3089,25.2708,"龙隐路小学","桂林","广西"
"1865A","Guilin","Guangxi","none","none",NA,FALSE,FALSE,FALSE,110.2869,25.2178,"八中","桂林","广西"
"1866A","Beihai","Guangxi","none","none",NA,FALSE,FALSE,FALSE,109.2256,21.5958,"牛尾岭水库","北海","广西"
"1867A","Beihai","Guangxi","none","none",NA,FALSE,FALSE,FALSE,109.1436,21.4086,"海滩公园","北海","广西"
"1868A","Beihai","Guangxi","none","none",NA,FALSE,FALSE,FALSE,109.0981,21.4661,"新市环保局","北海","广西"
"1869A","Beihai","Guangxi","none","none",NA,FALSE,FALSE,FALSE,109.1778,21.5233,"北海工业园","北海","广西"
"1870A","Liuzhou","Guangxi","none","none",NA,FALSE,FALSE,FALSE,109.4883,24.3898,"柳东小学","柳州","广西"
"1871A","Liuzhou","Guangxi","none","none",NA,FALSE,FALSE,FALSE,109.4108,24.3304,"环保监测站","柳州","广西"
"1872A","Liuzhou","Guangxi","none","none",NA,FALSE,FALSE,FALSE,109.3886,24.3406,"河西水厂","柳州","广西"
"1873A","Liuzhou","Guangxi","none","none",NA,FALSE,FALSE,FALSE,109.4221,24.299,"市四中","柳州","广西"
"1874A","Liuzhou","Guangxi","none","none",NA,FALSE,FALSE,FALSE,109.3957,24.3663,"市九中","柳州","广西"
"1875A","Liuzhou","Guangxi","none","none",NA,FALSE,FALSE,FALSE,109.4839,24.3158,"古亭山","柳州","广西"
"1876A","Sanya","Hainan","none","none",NA,FALSE,FALSE,FALSE,109.5078,18.2489,"河东子站","三亚","海南"
"1877A","Sanya","Hainan","none","none",NA,FALSE,FALSE,FALSE,109.4964,18.2681,"河西子站","三亚","海南"
"1878A","Mianyang","Sichuan","none","none",NA,FALSE,FALSE,FALSE,104.7778,31.4747,"富乐山","绵阳","四川"
"1879A","Mianyang","Sichuan","none","none",NA,FALSE,FALSE,FALSE,104.7536,31.4539,"市人大","绵阳","四川"
"1880A","Mianyang","Sichuan","none","none",NA,FALSE,FALSE,FALSE,104.6717,31.4656,"高新区自来水公司","绵阳","四川"
"1881A","Mianyang","Sichuan","none","none",NA,FALSE,FALSE,FALSE,104.7283,31.5072,"三水厂","绵阳","四川"
"1882A","Yibin","Sichuan","none","none",NA,FALSE,FALSE,FALSE,104.5969,28.8194,"石马中学","宜宾","四川"
"1883A","Yibin","Sichuan","none","none",NA,FALSE,FALSE,FALSE,104.6225,28.76611,"市委","宜宾","四川"
"1884A","Yibin","Sichuan","none","none",NA,FALSE,FALSE,FALSE,104.6061,28.7867,"宜宾四中","宜宾","四川"
"1885A","Yibin","Sichuan","none","none",NA,FALSE,FALSE,FALSE,104.6417,28.76389,"市政府","宜宾","四川"
"1886A","Yibin","Sichuan","none","none",NA,FALSE,FALSE,FALSE,104.5761,28.71583,"黄金嘴","宜宾","四川"
"1887A","Yibin","Sichuan","none","none",NA,FALSE,FALSE,FALSE,104.6789,28.7989,"沙坪中学","宜宾","四川"
"1888A","Panzhihua","Sichuan","none","none",NA,FALSE,FALSE,FALSE,101.68912,26.57098,"弄弄坪","攀枝花","四川"
"1889A","Panzhihua","Sichuan","none","none",NA,FALSE,FALSE,FALSE,101.5769,26.5928,"河门口","攀枝花","四川"
"1890A","Panzhihua","Sichuan","none","none",NA,FALSE,FALSE,FALSE,101.7169,26.585,"炳草岗","攀枝花","四川"
"1891A","Panzhihua","Sichuan","none","none",NA,FALSE,FALSE,FALSE,101.7453,26.5017,"仁和","攀枝花","四川"
"1893A","Luzhou","Sichuan","none","none",NA,FALSE,FALSE,FALSE,105.4306,28.9583,"九狮山","泸州","四川"
"1894A","Luzhou","Sichuan","none","none",NA,FALSE,FALSE,FALSE,105.4436,28.9026,"小市上码头","泸州","四川"
"1895A","Luzhou","Sichuan","none","none",NA,FALSE,FALSE,FALSE,105.4322,28.8558,"兰田宪桥","泸州","四川"
"1896A","Luzhou","Sichuan","none","none",NA,FALSE,FALSE,FALSE,105.4322,28.8833,"市环监站","泸州","四川"
"1897A","Zigong","Sichuan","none","none",NA,FALSE,FALSE,FALSE,104.7547,29.3628,"大塘山","自贡","四川"
"1898A","Zigong","Sichuan","none","none",NA,FALSE,FALSE,FALSE,104.7214,29.3586,"盐马路","自贡","四川"
"1899A","Zigong","Sichuan","none","none",NA,FALSE,FALSE,FALSE,104.7747,29.3564,"檀木林街","自贡","四川"
"1900A","Zigong","Sichuan","none","none",NA,FALSE,FALSE,FALSE,104.7692,29.3411,"春华路","自贡","四川"
"1901A","Deyang","Sichuan","none","none",NA,FALSE,FALSE,FALSE,104.4219,31.1208,"东山公园","德阳","四川"
"1902A","Deyang","Sichuan","none","none",NA,FALSE,FALSE,FALSE,104.3883,31.1333,"西小区","德阳","四川"
"1903A","Deyang","Sichuan","none","none",NA,FALSE,FALSE,FALSE,104.4053,31.1167,"市检察院","德阳","四川"
"1904A","Deyang","Sichuan","none","none",NA,FALSE,FALSE,FALSE,104.3539,31.1108,"耐火材料厂","德阳","四川"
"1905A","Nanchong","Sichuan","none","none",NA,FALSE,FALSE,FALSE,106.056,30.8064,"西山风景区","南充","四川"
"1906A","Nanchong","Sichuan","none","none",NA,FALSE,FALSE,FALSE,106.0789,30.8023,"南充市委","南充","四川"
"1907A","Nanchong","Sichuan","none","none",NA,FALSE,FALSE,FALSE,106.1031,30.8217,"南充炼油厂","南充","四川"
"1908A","Nanchong","Sichuan","none","none",NA,FALSE,FALSE,FALSE,106.1064,30.7856,"高坪区监测站","南充","四川"
"1909A","Nanchong","Sichuan","none","none",NA,FALSE,FALSE,FALSE,106.0642,30.7636,"嘉陵区环保局","南充","四川"
"1910A","Nanchong","Sichuan","none","none",NA,FALSE,FALSE,FALSE,106.1087,30.8388,"市环境监测站","南充","四川"
"1911A","Zunyi","Guizhou","none","none",NA,FALSE,FALSE,FALSE,106.9222,27.6869,"丁字口","遵义","贵州"
"1912A","Zunyi","Guizhou","none","none",NA,FALSE,FALSE,FALSE,106.9242,27.7019,"凤凰山","遵义","贵州"
"1913A","Zunyi","Guizhou","none","none",NA,FALSE,FALSE,FALSE,106.8906,27.6486,"忠庄","遵义","贵州"
"1914A","Zunyi","Guizhou","none","none",NA,FALSE,FALSE,FALSE,106.9231,27.6506,"舟水桥","遵义","贵州"
"1915A","Zunyi","Guizhou","none","none",NA,FALSE,FALSE,FALSE,106.9178,27.72,"干田坝","遵义","贵州"
"1916A","Qujing","Yunnan","none","none",NA,FALSE,FALSE,FALSE,103.7897,25.5035,"环境监测站","曲靖","云南"
"1917A","Qujing","Yunnan","none","none",NA,FALSE,FALSE,FALSE,103.8,25.5364,"烟厂办公区","曲靖","云南"
"1918A","Xianyang","Shaanxi","neighbor2","Fenwei","Fenwei",TRUE,FALSE,FALSE,108.7197,34.3956,"气象站","咸阳","陕西"
"1919A","Xianyang","Shaanxi","neighbor2","Fenwei","Fenwei",TRUE,FALSE,FALSE,108.6761,34.3181,"中华小区","咸阳","陕西"
"1920A","Xianyang","Shaanxi","neighbor2","Fenwei","Fenwei",TRUE,FALSE,FALSE,108.7233,34.3617,"师范学院","咸阳","陕西"
"1921A","Xianyang","Shaanxi","neighbor2","Fenwei","Fenwei",TRUE,FALSE,FALSE,108.7369,34.3164,"中医学院","咸阳","陕西"
"1922A","Tongchuan","Shaanxi","neighbor2","Fenwei","Fenwei",TRUE,FALSE,FALSE,109.0656,35.0994,"党校","铜川","陕西"
"1923A","Tongchuan","Shaanxi","neighbor2","Fenwei","Fenwei",TRUE,FALSE,FALSE,109.0697,35.0697,"王益区政府","铜川","陕西"
"1924A","Tongchuan","Shaanxi","neighbor2","Fenwei","Fenwei",TRUE,FALSE,FALSE,108.9344,34.9058,"新区管委会","铜川","陕西"
"1925A","Tongchuan","Shaanxi","neighbor2","Fenwei","Fenwei",TRUE,FALSE,FALSE,108.9589,34.8731,"新区兰芝公司","铜川","陕西"
"1926A","Yan'an","Shaanxi","neighbor2","none",NA,FALSE,FALSE,FALSE,109.4131,36.6275,"枣园","延安","陕西"
"1927A","Yan'an","Shaanxi","neighbor2","none",NA,FALSE,FALSE,FALSE,109.4761,36.6028,"延大医附院","延安","陕西"
"1928A","Yan'an","Shaanxi","neighbor2","none",NA,FALSE,FALSE,FALSE,109.4824,36.5767,"市监测站","延安","陕西"
"1929A","Yan'an","Shaanxi","neighbor2","none",NA,FALSE,FALSE,FALSE,109.5056,36.6106,"百米大道","延安","陕西"
"1930A","Baoji","Shaanxi","none","Fenwei","Fenwei",TRUE,FALSE,FALSE,107.1586,34.3708,"庙沟村","宝鸡","陕西"
"1931A","Baoji","Shaanxi","none","Fenwei","Fenwei",TRUE,FALSE,FALSE,107.0708,34.3017,"竹园沟","宝鸡","陕西"
"1932A","Baoji","Shaanxi","none","Fenwei","Fenwei",TRUE,FALSE,FALSE,107.1906,34.3672,"三陆医院","宝鸡","陕西"
"1933A","Baoji","Shaanxi","none","Fenwei","Fenwei",TRUE,FALSE,FALSE,107.1431,34.3547,"监测站","宝鸡","陕西"
"1934A","Baoji","Shaanxi","none","Fenwei","Fenwei",TRUE,FALSE,FALSE,107.1186,34.3739,"技工学校","宝鸡","陕西"
"1935A","Baoji","Shaanxi","none","Fenwei","Fenwei",TRUE,FALSE,FALSE,107.3906,34.3528,"陈仓环保局","宝鸡","陕西"
"1936A","Baoji","Shaanxi","none","Fenwei","Fenwei",TRUE,FALSE,FALSE,107.2058,34.3497,"文理学院","宝鸡","陕西"
"1937A","Baoji","Shaanxi","none","Fenwei","Fenwei",TRUE,FALSE,FALSE,107.2386,34.3622,"三迪小学","宝鸡","陕西"
"1938A","Weinan","Shaanxi","neighbor2","Fenwei","Fenwei",TRUE,FALSE,FALSE,109.5293,34.5101,"农科所","渭南","陕西"
"1939A","Weinan","Shaanxi","neighbor2","Fenwei","Fenwei",TRUE,FALSE,FALSE,109.5049,34.5004,"日报社","渭南","陕西"
"1940A","Weinan","Shaanxi","neighbor2","Fenwei","Fenwei",TRUE,FALSE,FALSE,109.4636,34.493,"体育馆","渭南","陕西"
"1941A","Weinan","Shaanxi","neighbor2","Fenwei","Fenwei",TRUE,FALSE,FALSE,109.4266,34.5021,"高新一小","渭南","陕西"
"1942A","Jinchang","Gansu","none","none",NA,FALSE,FALSE,FALSE,102.1878,38.5247,"市科委","金昌","甘肃"
"1943A","Jinchang","Gansu","none","none",NA,FALSE,FALSE,FALSE,102.1725,38.5339,"新川苑","金昌","甘肃"
"1944A","Jinchang","Gansu","none","none",NA,FALSE,FALSE,FALSE,102.1708,38.506100000000004,"公司二招","金昌","甘肃"
"1945A","Jiayuguan","Gansu","none","none",NA,FALSE,FALSE,FALSE,98.2908,39.7711,"气象局","嘉峪关","甘肃"
"1946A",NA,NA,NA,NA,NA,FALSE,NA,NA,NA,NA,"酒钢耐材公司","嘉峪关",NA
"1947A","Shizuishan","Ningxia Hui","none","none",NA,FALSE,FALSE,FALSE,106.3394,38.817,"沙湖旅游区","石嘴山","宁夏"
"1948A","Shizuishan","Ningxia Hui","none","none",NA,FALSE,FALSE,FALSE,106.3717,39.0153,"大武口黄河东街","石嘴山","宁夏"
"1949A","Shizuishan","Ningxia Hui","none","none",NA,FALSE,FALSE,FALSE,106.7704,39.2282,"惠农南大街","石嘴山","宁夏"
"1950A","Shizuishan","Ningxia Hui","none","none",NA,FALSE,FALSE,FALSE,106.7096,39.1292,"红果子镇惠新街","石嘴山","宁夏"
"1951A","Karamay","Xinjiang Uygur","none","none",NA,FALSE,FALSE,FALSE,84.8861,45.6033,"长征新村","克拉玛依","新疆"
"1952A","Karamay","Xinjiang Uygur","none","none",NA,FALSE,FALSE,FALSE,84.8897,45.5828,"南林小区","克拉玛依","新疆"
"1953A","Karamay","Xinjiang Uygur","none","none",NA,FALSE,FALSE,FALSE,85.1186,45.6886,"白碱滩区","克拉玛依","新疆"
"1954A","Karamay","Xinjiang Uygur","none","none",NA,FALSE,FALSE,FALSE,84.8983,44.3336,"独山子区","克拉玛依","新疆"
"1955A","Karamay","Xinjiang Uygur","none","none",NA,FALSE,FALSE,FALSE,85.6931,46.0872,"乌尔禾区商贸楼","克拉玛依","新疆"
"1956A","Korla","Xinjiang Uygur",NA,NA,NA,FALSE,NA,NA,86.1461,41.7511,"孔雀公园","库尔勒","新疆"
"1957A","Korla","Xinjiang Uygur",NA,NA,NA,FALSE,NA,NA,86.2022,41.7192,"棉纺厂","库尔勒","新疆"
"1958A","Korla","Xinjiang Uygur",NA,NA,NA,FALSE,NA,NA,86.2381,41.7128,"经济开发区","库尔勒","新疆"
"1959A","Shouguang","Shandong",NA,NA,NA,FALSE,NA,NA,118.746,36.881,"监测站","寿光","山东"
"1960A","Shouguang","Shandong",NA,NA,NA,FALSE,NA,NA,118.78,36.864,"世纪学校","寿光","山东"
"1961A","Zhangqiu","Shandong",NA,NA,NA,FALSE,NA,NA,117.541,36.71,"环境监测站","章丘","山东"
"1962A","Zhangqiu","Shandong",NA,NA,NA,FALSE,NA,NA,117.541,36.71,"明水开发区","章丘","山东"
"1963A","Jimo","Shandong",NA,NA,NA,FALSE,NA,NA,120.61,36.44,"环保局子站","即墨","山东"
"1964A","Jimo","Shandong",NA,NA,NA,FALSE,NA,NA,120.47,36.39,"开发区子站","即墨","山东"
"1965A","Jiaonan","Shandong",NA,NA,NA,FALSE,NA,NA,120.005,35.878,"JN子站","胶南","山东"
"1966A","Jiaonan","Shandong",NA,NA,NA,FALSE,NA,NA,120.039,35.872,"2号子站","胶南","山东"
"1967A","Jiaozhou","Shandong",NA,NA,NA,FALSE,NA,NA,120.008,36.283,"胶州环保局","胶州","山东"
"1968A","Jiaozhou","Shandong",NA,NA,NA,FALSE,NA,NA,120.014,36.253,"胶州一中","胶州","山东"
"1969A","Laixi","Shandong",NA,NA,NA,FALSE,NA,NA,120.537,36.865,"环保局子站","莱西","山东"
"1970A","Laixi","Shandong",NA,NA,NA,FALSE,NA,NA,120.515,36.885,"人民广场子站","莱西","山东"
"1971A","Pingdu","Shandong",NA,NA,NA,FALSE,NA,NA,119.952,36.792,"1号","平度","山东"
"1972A","Pingdu","Shandong",NA,NA,NA,FALSE,NA,NA,119.976,36.799,"2号","平度","山东"
"1973A","Penglai","Shandong",NA,NA,NA,FALSE,NA,NA,120.747,37.825,"蓬莱环保局","蓬莱","山东"
"1974A","Penglai","Shandong",NA,NA,NA,FALSE,NA,NA,120.773,37.809,"蓬莱博物馆","蓬莱","山东"
"1975A","Zhaoyuan","Shandong",NA,NA,NA,FALSE,NA,NA,120.399,37.374,"招远环保局","招远","山东"
"1976A","Zhaoyuan","Shandong",NA,NA,NA,FALSE,NA,NA,120.394,37.364,"招远教育局","招远","山东"
"1977A","Laizhou","Shandong",NA,NA,NA,FALSE,NA,NA,119.941,37.177,"莱州环保局","莱州","山东"
"1978A","Laizhou","Shandong",NA,NA,NA,FALSE,NA,NA,119.959,37.18,"莱州外经委","莱州","山东"
"1979A","Rongcheng","Shandong",NA,NA,NA,FALSE,NA,NA,122.471,37.154,"荣成市环保局办公楼","荣成","山东"
"1980A","Rongcheng","Shandong",NA,NA,NA,FALSE,NA,NA,122.41,37.161,"山东成山轮胎公司","荣成","山东"
"1981A","Wendeng","Shandong",NA,NA,NA,FALSE,NA,NA,122.038,37.197,"文登市环保局","文登","山东"
"1982A","Wendeng","Shandong",NA,NA,NA,FALSE,NA,NA,122.019,37.187,"文登市丝绸公司","文登","山东"
"1983A","Rushan","Shandong",NA,NA,NA,FALSE,NA,NA,121.531,36.913,"乳山市环保局","乳山","山东"
"1984A","Rushan","Shandong",NA,NA,NA,FALSE,NA,NA,121.544,36.907,"乳山市气象局","乳山","山东"
"1985A","Wujiang","Jiangsu",NA,NA,NA,FALSE,NA,NA,120.636,31.155,"吴江市环保局","吴江","江苏"
"1986A","Wujiang","Jiangsu",NA,NA,NA,FALSE,NA,NA,120.635,31.17,"教师进修学校","吴江","江苏"
"1987A","Wujiang","Jiangsu",NA,NA,NA,FALSE,NA,NA,120.658,31.172,"吴江开发区","吴江","江苏"
"1988A","Kunshan","Jiangsu",NA,NA,NA,FALSE,NA,NA,120.953,31.388,"昆山实验小学","昆山","江苏"
"1989A","Kunshan","Jiangsu",NA,NA,NA,FALSE,NA,NA,120.999,31.381,"震川中学","昆山","江苏"
"1990A","Changshu","Jiangsu",NA,NA,NA,FALSE,NA,NA,120.758,31.67,"海虞子站","常熟","江苏"
"1991A","Changshu","Jiangsu",NA,NA,NA,FALSE,NA,NA,120.721,31.671,"兴福子站","常熟","江苏"
"1992A","Changshu","Jiangsu",NA,NA,NA,FALSE,NA,NA,120.734,31.656,"菱塘子站","常熟","江苏"
"1993A","Zhangjiagang","Jiangsu",NA,NA,NA,FALSE,NA,NA,120.526,31.874,"张家港市监测站","张家港","江苏"
"1994A","Zhangjiagang","Jiangsu",NA,NA,NA,FALSE,NA,NA,120.55,31.882,"城北小学","张家港","江苏"
"1995A","Taicang","Jiangsu",NA,NA,NA,FALSE,NA,NA,121.115,31.453,"太仓市监测站","太仓","江苏"
"1996A","Taicang","Jiangsu",NA,NA,NA,FALSE,NA,NA,121.14,31.422,"科教新城实小","太仓","江苏"
"1997A","Jurong","Jiangsu",NA,NA,NA,FALSE,NA,NA,119.146,31.955,"消防指挥中心","句容","江苏"
"1998A","Jurong","Jiangsu",NA,NA,NA,FALSE,NA,NA,119.18,31.955,"房家坝","句容","江苏"
"1999A","Jiangyin","Jiangsu",NA,NA,NA,FALSE,NA,NA,120.268,31.92,"虹桥邮政","江阴","江苏"
"2000A","Jiangyin","Jiangsu",NA,NA,NA,FALSE,NA,NA,120.237,31.909,"五星公园","江阴","江苏"
"2001A","Jiangyin","Jiangsu",NA,NA,NA,FALSE,NA,NA,120.302,31.92,"第二实验小学","江阴","江苏"
"2002A","Yixing","Jiangsu",NA,NA,NA,FALSE,NA,NA,119.818,31.354,"宜兴市环保局","宜兴","江苏"
"2003A","Yixing","Jiangsu",NA,NA,NA,FALSE,NA,NA,119.794,31.371,"宜园","宜兴","江苏"
"2004A","Jintan","Jiangsu",NA,NA,NA,FALSE,NA,NA,119.579,31.751,"金坛市环境监测站","金坛","江苏"
"2005A","Jintan","Jiangsu",NA,NA,NA,FALSE,NA,NA,119.579,31.737,"金坛市自来水公司","金坛","江苏"
"2006A","Liyang","Jiangsu",NA,NA,NA,FALSE,NA,NA,119.46,31.4,"溧阳市东门子站","溧阳","江苏"
"2007A","Liyang","Jiangsu",NA,NA,NA,FALSE,NA,NA,119.438,31.317,"燕山子站","溧阳","江苏"
"2008A","Haimen","Jiangsu",NA,NA,NA,FALSE,NA,NA,121.173,31.896,"海门市监测站","海门","江苏"
"2009A","Haimen","Jiangsu",NA,NA,NA,FALSE,NA,NA,121.154,31.896,"蓓蕾幼儿园","海门","江苏"
"2010A","Lin'an","Zhejiang",NA,NA,NA,FALSE,NA,NA,119.7183,30.2366,"市政府","临安","浙江"
"2011A","Lin'an","Zhejiang",NA,NA,NA,FALSE,NA,NA,119.6942,30.2311,"四中","临安","浙江"
"2012A","Fuyang","Zhejiang",NA,NA,NA,FALSE,NA,NA,119.954,30.054,"监测站","富阳","浙江"
"2013A","Fuyang","Zhejiang",NA,NA,NA,FALSE,NA,NA,119.946,30.049,"富春二小","富阳","浙江"
"2014A","Yiwu","Zhejiang",NA,NA,NA,FALSE,NA,NA,120.091,29.305,"江东","义乌","浙江"
"2015A","Yiwu","Zhejiang",NA,NA,NA,FALSE,NA,NA,120.04,29.334,"北苑","义乌","浙江"
"2016A","Zhuji","Zhejiang",NA,NA,NA,FALSE,NA,NA,120.251,29.719,"图书馆","诸暨","浙江"
"2017A","Zhuji","Zhejiang",NA,NA,NA,FALSE,NA,NA,120.209,29.732,"富林印务","诸暨","浙江"
"2018A","Wafangdian","Liaoning",NA,NA,NA,FALSE,NA,NA,121.989,39.625,"抱龙山庄","瓦房店","辽宁"
"2019A","Wafangdian","Liaoning",NA,NA,NA,FALSE,NA,NA,122.011,39.617,"东山公园","瓦房店","辽宁"
"2031A","Zhuzhou","Hunan","none","none",NA,FALSE,FALSE,FALSE,113.1817,27.9958,"云田中学","株洲","湖南"
"2054A","Xinyang","Henan","neighbor2","none",NA,FALSE,FALSE,FALSE,114.1044,32.1078,"平桥分局","信阳","河南"
"2064A","Xinyang","Henan","neighbor2","none",NA,FALSE,FALSE,FALSE,114.01220000000001,32.1403,"南湾水厂","信阳","河南"
"2065A","Xinyang","Henan","neighbor2","none",NA,FALSE,FALSE,FALSE,114.0681,32.1342,"市酿酒公司","信阳","河南"
"2066A","Xinyang","Henan","neighbor2","none",NA,FALSE,FALSE,FALSE,114.0614,32.1383,"审计局","信阳","河南"
"2067A","Zhoukou","Henan","neighbor1","none",NA,FALSE,FALSE,FALSE,114.6613,33.6128,"市环境监测站","周口","河南"
"2068A","Zhoukou","Henan","neighbor1","none",NA,FALSE,FALSE,FALSE,114.6758,33.6347,"周口师范","周口","河南"
"2069A","Zhoukou","Henan","neighbor1","none",NA,FALSE,FALSE,FALSE,114.6546,33.5979,"市运管处","周口","河南"
"2070A","Zhoukou","Henan","neighbor1","none",NA,FALSE,FALSE,FALSE,114.6369,33.6406,"川汇区环保局","周口","河南"
"2073A","Zhangzhou","Fujian","none","none",NA,FALSE,FALSE,FALSE,117.7206,24.5086,"蓝田","漳州","福建"
"2074A","Zhangzhou","Fujian","none","none",NA,FALSE,FALSE,FALSE,117.6569,24.5157,"漳州三中","漳州","福建"
"2075A","Zhangzhou","Fujian","none","none",NA,FALSE,FALSE,FALSE,117.6336,24.4674,"九湖","漳州","福建"
"2160A","Jincheng","Shanxi","26+2","none","2+26",FALSE,FALSE,FALSE,112.85,35.5051,"自来水公司","晋城","山西"
"2161A","Jincheng","Shanxi","26+2","none","2+26",FALSE,FALSE,FALSE,112.835,35.4934,"白云商贸","晋城","山西"
"2162A","Jincheng","Shanxi","26+2","none","2+26",FALSE,FALSE,FALSE,112.8564,35.4883,"市环保局","晋城","山西"
"2163A","Jincheng","Shanxi","26+2","none","2+26",FALSE,FALSE,FALSE,112.8664,35.4894,"技术学院","晋城","山西"
"2164A","Jincheng","Shanxi","26+2","none","2+26",FALSE,FALSE,FALSE,112.8252,35.4813,"泽州一中","晋城","山西"
"2165A","Jincheng","Shanxi","26+2","none","2+26",FALSE,FALSE,FALSE,112.8453,35.546,"白马寺","晋城","山西"
"2166A","Shuozhou","Shanxi","neighbor2","none",NA,FALSE,FALSE,FALSE,112.44,39.3514,"平朔","朔州","山西"
"2167A","Shuozhou","Shanxi","neighbor2","none",NA,FALSE,FALSE,FALSE,112.4549,39.3606,"朔唯","朔州","山西"
"2168A","Shuozhou","Shanxi","neighbor2","none",NA,FALSE,FALSE,FALSE,112.4254,39.3179,"区政府","朔州","山西"
"2169A","Shuozhou","Shanxi","neighbor2","none",NA,FALSE,FALSE,FALSE,112.4078,39.3265,"市环保局","朔州","山西"
"2170A","Shuozhou","Shanxi","neighbor2","none",NA,FALSE,FALSE,FALSE,112.4279,39.3673,"市二中","朔州","山西"
"2171A","Jinzhong","Shanxi","neighbor1","Fenwei","Fenwei",TRUE,FALSE,FALSE,112.7549,37.7019,"锦纶小区","晋中","山西"
"2172A",NA,NA,NA,"Fenwei","Fenwei",TRUE,NA,NA,NA,NA,"榆次液压件厂","晋中",NA
"2173A","Jinzhong","Shanxi","neighbor1","Fenwei","Fenwei",TRUE,FALSE,FALSE,112.7306,37.7111,"南都小区","晋中","山西"
"2174A","Jinzhong","Shanxi","neighbor1","Fenwei","Fenwei",TRUE,FALSE,FALSE,112.7105,37.7087,"榆次区政府","晋中","山西"
"2175A","Yuncheng","Shanxi","neighbor1","Fenwei","Fenwei",TRUE,FALSE,FALSE,110.9956,35.0147,"运城中学","运城","山西"
"2176A","Yuncheng","Shanxi","neighbor1","Fenwei","Fenwei",TRUE,FALSE,FALSE,111.0233,35.0611,"禹都开发区","运城","山西"
"2177A",NA,NA,NA,"Fenwei","Fenwei",TRUE,NA,NA,NA,NA,"运城学院","运城",NA
"2178A","Yuncheng","Shanxi","neighbor1","Fenwei","Fenwei",TRUE,FALSE,FALSE,110.9678,35.0308,"地区技校","运城","山西"
"2179A","Yuncheng","Shanxi","neighbor1","Fenwei","Fenwei",TRUE,FALSE,FALSE,111.0414,35.1147,"空港新区","运城","山西"
"2180A","Xinzhou","Shanxi","neighbor1","none",NA,FALSE,FALSE,FALSE,112.7356,38.4186,"机引","忻州","山西"
"2181A","Xinzhou","Shanxi","neighbor1","none",NA,FALSE,FALSE,FALSE,112.7383,38.4519,"开发区","忻州","山西"
"2182A","Xinzhou","Shanxi","neighbor1","none",NA,FALSE,FALSE,FALSE,112.7003,38.4928,"会展中心","忻州","山西"
"2183A","Luliang","Shanxi","neighbor1","Fenwei","Fenwei",TRUE,FALSE,FALSE,111.1406,37.5211,"环保局","吕梁","山西"
"2184A",NA,NA,NA,"Fenwei","Fenwei",TRUE,NA,NA,NA,NA,"豆制品厂","吕梁",NA
"2185A","Luliang","Shanxi","neighbor1","Fenwei","Fenwei",TRUE,FALSE,FALSE,111.1297,37.5136,"自来水公司","吕梁","山西"
"2186A","Wuhai","Nei Mongol","none","none",NA,FALSE,FALSE,FALSE,106.8219,39.6719,"聚英学校","乌海","内蒙古"
"2187A","Wuhai","Nei Mongol","none","none",NA,FALSE,FALSE,FALSE,106.8089,39.6969,"市林业局","乌海","内蒙古"
"2188A","Wuhai","Nei Mongol","none","none",NA,FALSE,FALSE,FALSE,106.7931,39.6572,"中海勃湾学校","乌海","内蒙古"
"2189A","Tongliao","Nei Mongol","none","none",NA,FALSE,FALSE,FALSE,122.2603,43.6267,"通辽宾馆","通辽","内蒙古"
"2190A","Tongliao","Nei Mongol","none","none",NA,FALSE,FALSE,FALSE,122.3039,43.6156,"胶建铝业","通辽","内蒙古"
"2191A","Tongliao","Nei Mongol","none","none",NA,FALSE,FALSE,FALSE,122.2532,43.6801,"艺术职业学校","通辽","内蒙古"
"2192A","Hulunbeier","Nei Mongol",NA,NA,NA,FALSE,NA,NA,119.7594,49.2261,"区环保局","呼伦贝尔","内蒙古"
"2193A","Hulunbeier","Nei Mongol",NA,NA,NA,FALSE,NA,NA,119.7283,49.2014,"市艺校","呼伦贝尔","内蒙古"
"2194A","Bayan Nur","Nei Mongol",NA,NA,NA,FALSE,NA,NA,107.5936,40.916,"秋林养殖基地","巴彦淖尔","内蒙古"
"2195A","Bayan Nur","Nei Mongol",NA,NA,NA,FALSE,NA,NA,107.4211,40.7608,"附中","巴彦淖尔","内蒙古"
"2196A","Bayan Nur","Nei Mongol",NA,NA,NA,FALSE,NA,NA,107.3715,40.7378,"市环保大楼","巴彦淖尔","内蒙古"
"2197A","Wulanchabu","Nei Mongol",NA,NA,NA,FALSE,NA,NA,113.1306,40.9923,"集宁新区","乌兰察布","内蒙古"
"2198A","Wulanchabu","Nei Mongol",NA,NA,NA,FALSE,NA,NA,113.0974,41.038,"集宁旧区西","乌兰察布","内蒙古"
"2199A","Xinganmeng","Nei Mongol",NA,NA,NA,FALSE,NA,NA,122.062,46.0872,"盟监测站","兴安盟","内蒙古"
"2200A","Xinganmeng","Nei Mongol",NA,NA,NA,FALSE,NA,NA,122.0506,46.0703,"胜华新制药厂","兴安盟","内蒙古"
"2201A","Xinganmeng","Nei Mongol",NA,NA,NA,FALSE,NA,NA,121.9462,46.0756,"科右前旗环保局","兴安盟","内蒙古"
"2202A","Xilin Gol","Nei Mongol","none","none",NA,FALSE,FALSE,FALSE,116.1042,43.9317,"市环保监测站","锡林郭勒盟","内蒙古"
"2203A","Xilin Gol","Nei Mongol","none","none",NA,FALSE,FALSE,FALSE,116.0781,43.9311,"市政府","锡林郭勒盟","内蒙古"
"2204A","Alxa","Nei Mongol","none","none",NA,FALSE,FALSE,FALSE,105.6775,38.8343,"体育场","阿拉善盟","内蒙古"
"2205A","Alxa","Nei Mongol","none","none",NA,FALSE,FALSE,FALSE,105.6975,38.843,"盟环保楼","阿拉善盟","内蒙古"
"2206A","Alxa","Nei Mongol","none","none",NA,FALSE,FALSE,FALSE,105.724,38.8516,"环保局新楼","阿拉善盟","内蒙古"
"2207A","Fuxin","Liaoning","none","none",NA,FALSE,FALSE,FALSE,121.6178,41.9967,"工业园区","阜新","辽宁"
"2208A","Fuxin","Liaoning","none","none",NA,FALSE,FALSE,FALSE,121.6561,42.0186,"长青街","阜新","辽宁"
"2209A","Fuxin","Liaoning","none","none",NA,FALSE,FALSE,FALSE,121.6972,42.0503,"农业园区","阜新","辽宁"
"2210A","Fuxin","Liaoning","none","none",NA,FALSE,FALSE,FALSE,121.6722,42.0228,"东苑","阜新","辽宁"
"2211A","Fuxin","Liaoning","none","none",NA,FALSE,FALSE,FALSE,121.6592,42.0486,"玉龙新城","阜新","辽宁"
"2212A","Liaoyang","Liaoning","none","none",NA,FALSE,FALSE,FALSE,123.2,41.1953,"宏伟区","辽阳","辽宁"
"2213A","Liaoyang","Liaoning","none","none",NA,FALSE,FALSE,FALSE,123.15,41.2553,"新华园","辽阳","辽宁"
"2214A","Liaoyang","Liaoning","none","none",NA,FALSE,FALSE,FALSE,123.1761,41.2736,"滨河路","辽阳","辽宁"
"2215A","Liaoyang","Liaoning","none","none",NA,FALSE,FALSE,FALSE,123.1417,41.2894,"铁西工业园","辽阳","辽宁"
"2216A","Tieling","Liaoning","none","none",NA,FALSE,FALSE,FALSE,123.8139,42.3022,"汇工街西","铁岭","辽宁"
"2217A","Tieling","Liaoning","none","none",NA,FALSE,FALSE,FALSE,123.8831,42.2953,"水上乐园","铁岭","辽宁"
"2218A","Tieling","Liaoning","none","none",NA,FALSE,FALSE,FALSE,123.8489,42.2864,"银州路东段","铁岭","辽宁"
"2219A","Tieling","Liaoning","none","none",NA,FALSE,FALSE,FALSE,123.7153,42.2217,"金沙江路北","铁岭","辽宁"
"2220A","Chaoyang","Liaoning","neighbor2","none",NA,FALSE,FALSE,FALSE,120.4439,41.5931,"西梁","朝阳","辽宁"
"2221A","Chaoyang","Liaoning","neighbor2","none",NA,FALSE,FALSE,FALSE,120.4486,41.5672,"河畔小区","朝阳","辽宁"
"2222A","Chaoyang","Liaoning","neighbor2","none",NA,FALSE,FALSE,FALSE,120.4247,41.5647,"八里堡","朝阳","辽宁"
"2223A","Chaoyang","Liaoning","neighbor2","none",NA,FALSE,FALSE,FALSE,120.3939,41.615,"农业园区","朝阳","辽宁"
"2224A","Siping","Jilin","none","none",NA,FALSE,FALSE,FALSE,124.3419,43.1747,"监测站","四平","吉林"
